lkey,areasymbol,areaname,mlraoffice,areaacres,longitude,latitude,ph1to1h2o,cec7,awc,om,claytotal,silttotal,sandtotal,slope,tfact,elev,cos_sim,cos_sim_normed
14083,CA055,"Napa County, California","Davis, CA",506016,-122.35427859999999,-41.95346069,6.361703866,18.29888324,0.111453502,2.049624917,27.52080061,40.59606346,31.84420835,35.31339609,2.668490597,421.3862827,0.9999999999999999,1.0
14189,OR033,"Josephine County, Oregon","Davis, CA",1048015,-123.6353683,-40.616901399999996,6.137491684,15.32359732,0.10877862199999999,2.769405261,27.52097601,33.81914635,38.68852489,49.01560802,2.708805173,807.7612012999999,0.9971443250225449,0.9375446576584894
14201,CA692,Santa Monica Mountains National Recreation Area,"Davis, CA",188841,-118.7113571,-42.15924835,6.8383269570000005,19.29462309,0.11431817,1.926705181,18.29496255,36.43786344,40.74282729,40.57482764,2.402294386,381.8694646,0.9991203143888172,0.9374173224894544
14081,CA041,"Marin County, California","Davis, CA",391500,-122.68847659999999,-42.26856613,6.100137359,18.19589689,0.13201851,1.661151495,28.05585766,34.92423952,37.01990283,34.87752784,3.0611882360000005,186.8629265,0.9809348408892453,0.9357680590571987
14080,CA033,"Lake County, California","Davis, CA",857072,-122.7169952,-41.83596802,6.226232225,15.69344336,0.124723454,1.2842598109999999,25.70523636,32.522046,41.77271774,36.02935385,2.3983180230000003,764.4912213,0.9969671260803213,0.927104454065929
14101,CA624,"El Dorado Area, California","Davis, CA",539898,-120.8066406,-40.98105621,5.977215649,19.05464609,0.11204429800000001,1.444888835,22.25046488,39.55691401,38.11259199,28.34402332,2.7915101360000003,778.0455359,0.9967123425006708,0.9265654406476255
14131,CA673,"Santa Barbara County, California, South Coastal Part","Davis, CA",218536,-120.0454788,-42.53373718,6.358692025,23.59246957,0.131383489,1.453374067,24.98618121,31.21492561,43.79889369,47.28518623,2.281734464,449.14916730000004,0.9991055304517943,0.9264093228672731
14876,TN608,"Sevier County Area, Tennessee","Morgantown, WV",255100,-83.52807617,-23.78816032,5.412259926,16.70976197,0.120459057,0.6108123529999999,28.12612301,40.46645027,31.29222092,30.15655462,2.7995853530000003,577.7812355000001,0.9987103548640094,0.9250857577415624
10466,WA603,"Asotin County Area, Washington (Asotin and Garfield Counties)","Portland, OR",340175,-117.22912600000001,-35.46034241,7.346207045,24.70774132,0.12632103,1.6889903519999998,27.07888575,43.47533997,29.44577424,38.07717265,2.190878636,792.6990232999999,0.9972715251200329,0.9177876391323455
14122,CA664,"San Luis Obispo County, California, Coastal Part","Davis, CA",562150,-120.7602386,-42.63486481,6.695407307000001,19.04098271,0.12687812099999998,2.222356295,28.1721788,28.77254212,43.05097159,32.54140136,2.657236449,373.0874147,0.9989697860378091,0.9167829005887765
14142,CA687,"Mendocino County, Eastern Part and Southwestern Part of Trinity County, California","Davis, CA",1103912,-123.2225876,-42.00505829,6.247740231,17.00011665,0.118649226,1.3059745090000001,24.24545121,32.32767721,41.68234109,41.02893125,3.1329082319999997,656.0695326,0.9980878889875553,0.9130084560651995
20767,CA709,"Mendocino National Forest Area, California","Davis, CA",316748,-123.00363159999999,-41.69864655,5.471582538,15.04203264,0.095334245,1.6417843090000002,23.33341367,36.45639752,40.18535193,45.8354153,1.989988585,1171.787415,0.9946126974469188,0.9082144081207177
14153,CA701,"Six Rivers National Forest Area, California","Davis, CA",1135449,-123.60569,-41.55484772,5.839351664,19.48097892,0.112319584,1.254826421,25.0390307,36.17798029,38.45903006,49.75366724,3.102356767,844.6913364,0.9970235534290872,0.9041581586399382
14089,CA097,"Sonoma County, California","Davis, CA",1033005,-122.94113159999999,-42.14026642,6.017657617,19.9103816,0.108767211,1.329995532,29.14295509,29.94916009,40.90788472,34.25957776,3.3217957410000003,481.5338198,0.9992967687823157,0.9010247213784721
14111,CA646,"Eastern Santa Clara Area, California","Davis, CA",539080,-121.536911,-42.157546999999994,6.39019622,18.74663298,0.150881241,1.103518835,25.81936662,35.275992200000005,38.90360148,39.31981532,2.166472567,559.4039474,0.99912575810429,0.8994547920966559
10369,OR015,"Curry County, Oregon","Portland, OR",1054528,-124.1415482,-40.86045837,5.360828786,17.49006559,0.126646598,4.693827392,26.42869189,37.92328653,35.71536254,43.53492611,3.0236335260000002,538.4514958999999,0.9994282481697835,0.8970029270168952
14096,CA609,"Alameda Area, California","Davis, CA",325000,-121.8239899,-42.0041275,6.96150781,21.95145744,0.138472667,0.9970943059999999,29.99301258,33.26256906,28.1394104,30.87767189,2.819880715,416.26419980000003,0.9997253552637481,0.8914022091628715
14102,CA628,"Amador Area, California","Davis, CA",298992,-120.6974335,-41.07616425,5.887295971,13.66806789,0.120934344,1.673875359,20.5721684,37.81676657,39.72786825,27.49845357,2.519687871,569.740955,0.9983342459642872,0.88955289445173
14095,CA607,"Shasta County Area, California","Davis, CA",1025000,-122.2834396,-40.65975571,5.856927379,18.66683695,0.104918506,1.4176285,25.60568243,32.32316809,41.98639452,26.97038136,3.0773826339999997,737.9213473,0.9967726838761908,0.8854569474895021
14143,CA688,"Channel Islands Area, California, Parts of Santa Barbara and Los Angeles Counties","Davis, CA",229120,-119.37804409999998,-42.75191498,7.154665667000001,21.36450616,0.100457014,1.733291752,23.20912311,22.87696416,29.84239199,37.62994878,2.701582365,239.91160580000002,0.9949073610908014,0.8841290450654398
14082,CA053,"Monterey County, California","Davis, CA",2127521,-121.0963821,-42.21166229,6.86536231,22.14186564,0.130169123,2.313200347,22.82696233,31.24387448,45.63913623,38.08442069,2.948066775,516.2124861000001,0.9990323203160314,0.8829133096228103
14822,TN606,"Cocke County Area, Tennessee","Morgantown, WV",264900,-83.10658264,-23.56826019,5.389078955,14.597590700000001,0.11474217199999999,0.95579419,25.44736317,35.44965872,39.10297803,29.54631497,3.150245008,597.2948587999999,0.998278587661703,0.880242526765168
14891,TN602,"Hawkins and Hancock Counties, Tennessee","Morgantown, WV",462700,-83.03608704,-23.17909813,5.508593765,16.59742792,0.117927536,0.7024950520000001,30.70444462,43.00855783,26.22613745,26.57595625,3.26785213,408.8835612,0.9996686603130298,0.8738553078507063
14149,CA694,"Mendocino County, Western Part, California","Davis, CA",1042400,-123.6370926,-42.2465744,5.667111278999999,19.99222222,0.12341653699999999,1.3003256840000001,24.378679199999997,33.19284351,41.93986756,43.17358274,3.352881731,372.839016,0.998786356524619,0.8735989792752059
14103,CA630,"Central Sierra Foothills Area, California, Parts of Calaveras and Tuolumne Counties","Davis, CA",780536,-120.57747649999999,-41.2629776,6.025886525,14.26244809,0.136743669,1.941893232,23.45064303,34.78959758,41.75974857,25.52216442,2.7207019669999997,506.86453489999997,0.9987728565231085,0.8690014115088118
14572,WV063,"Monroe County, West Virginia","Morgantown, WV",303000,-80.54008484,-21.42419434,5.073665738,13.22806076,0.112971264,2.465284333,23.56743292,46.70534503,29.72011809,29.8478687,2.54980691,150.39393959999998,0.9652144123459212,0.8639009437529228
14711,KY135,"Lewis County, Kentucky","Morgantown, WV",317043,-83.33442688,-22.35276794,5.348663706,16.11237818,0.11904596699999999,0.626874546,25.62087666,44.77763461,29.60148863,30.9810369,3.412856826,280.7322075,0.9970029961419599,0.8605260146282716
14841,TN087,"Jackson County, Tennessee","Morgantown, WV",206000,-85.668396,-24.6396637,5.446601921,17.68843576,0.12614426,1.474509015,33.25008628,49.191011700000004,17.50416578,34.17153449,3.163389027,224.96180209999997,0.9876251112053849,0.8596831567440174
14105,CA637,"San Mateo Area, California","Davis, CA",168898,-122.3313904,-42.5222435,6.093852364,19.08419443,0.138652365,1.454833885,24.40703963,32.1468763,43.44537749,42.01411602,3.2807638480000003,378.24667880000004,0.9988189296665493,0.8596172868553693
14761,KY633,"Leslie and Perry Counties, Kentucky","Morgantown, WV",477881,-83.27719116,-23.05862999,5.328145356,14.63104944,0.10776625199999999,2.539186635,19.70625724,45.72498041,34.56876234,42.31328338,3.3837096439999996,436.4593198,0.9996249354697333,0.8577891050125155
14108,CA642,"Stanislaus County, California, Western Part","Davis, CA",394215,-121.2247772,-41.91474915,7.390300862999999,20.71828055,0.138352802,0.747247187,27.84182228,31.03668559,41.11385683,34.22402755,2.817232329,336.3777645,0.9984844355653633,0.8575332361129951
14078,CA021,"Glenn County, California","Davis, CA",849197,-122.39739990000001,-41.23672485,6.678323553999999,23.01152937,0.101510085,1.075582137,30.96049452,35.88735532,33.04995326,22.25359031,3.029572799,462.81017360000004,0.9991798085421089,0.8571512414756765
14752,KY623,"Jackson and Owsley Counties, Kentucky","Morgantown, WV",348755,-83.86317444,-23.13546753,5.07067816,18.67109156,0.111531843,1.979895718,22.16385398,48.30507285,29.53107306,37.61458787,3.3584405860000004,372.8253775,0.999290368504735,0.8562966907581407
14562,WV025,"Greenbrier County, West Virginia","Morgantown, WV",655800,-80.42709351,-21.13807869,5.24037907,18.72301445,0.116420375,3.278169697,23.62953781,49.14674803,26.68921186,29.13258688,3.1257206660000003,496.148354,0.9992861449518151,0.8561576577400568
16658,VA169,"Scott County, Virginia","Morgantown, WV",308600,-82.63945007,-22.85014343,5.377387155,11.72947651,0.121016361,0.577290845,35.14071306,40.11273379,24.74655323,38.56068173,3.211415553,582.4285521,0.9986631427112709,0.8554680256256063
10499,WA714,"Umatilla National Forest, Washington","Portland, OR",330211,-117.6523132,-35.62599564,6.520787674,17.6679534,0.134254136,3.4670863819999997,21.88374678,50.67869727,27.43755657,44.89050627,2.349738362,1405.951095,0.9936624900882327,0.8544463939881072
10480,WA637,"Kittitas County Area, Washington","Portland, OR",1236263,-120.714592,-36.61296082,6.430256138,18.93554978,0.102667699,2.660396354,20.54285851,33.93512228,45.17878394,31.22183457,2.926394166,985.9151019999999,0.9951032712137653,0.8519021374981246
14540,VA185,"Tazewell County, Virginia","Morgantown, WV",325100,-81.56335449,-22.1459465,5.223478823,9.772195142000001,0.110509921,0.749467075,30.51282972,36.95871445,32.52845598,33.50417622,2.8968554460000004,741.4286578,0.996984312106683,0.8517794956667268
14821,TN027,"Clay County, Tennessee","Morgantown, WV",166000,-85.54068756,-24.43216896,5.78149222,11.08728474,0.129241,0.8442733920000001,28.95255842,51.62679787,19.39757402,33.61924801,3.0184162960000003,191.3758028,0.9796182581605181,0.8492384562562443
14536,VA167,"Russell County, Virginia","Morgantown, WV",306900,-82.09358215,-22.53551102,5.358290712,12.2141256,0.114287369,0.5333944939999999,32.94118207,40.31398436,26.74483379,35.81268913,3.351688984,621.1274622999999,0.9983136832822356,0.8489735432426903
14581,WV099,"Wayne County, West Virginia","Morgantown, WV",327900,-82.41784668,-22.17467117,4.902072313,14.99135687,0.122465824,1.90127665,25.30052851,41.85326433,32.84575751,35.50237623,3.2646356119999997,283.8272955,0.9969611103619685,0.8482829049711709
14583,WV103,"Wetzel County, West Virginia","Morgantown, WV",231200,-80.66674805,-20.4802227,5.131746813,17.01390876,0.129149745,1.7817679640000001,35.33796538,49.77928661,14.2857739,40.30244142,3.1412386430000003,286.5886545,0.9937705980077586,0.8463703898986402
14110,CA645,"Tehama County, California","Davis, CA",1851601,-122.20382690000001,-40.77230072,6.1908055189999995,20.02616512,0.092595833,1.341687586,24.01964278,30.52306438,45.06734265,25.51261294,2.516004148,677.8861056,0.9971054596229758,0.8460772233049778
20268,WV622,"New River Gorge National River, West Virginia","Morgantown, WV",72160,-81.00634766,-21.5909729,4.86855016,14.78210035,0.11751399900000001,2.649610758,22.12648333,44.67017265,32.00281574,37.71593723,3.2217586910000002,560.3964216,0.9990934257204577,0.8441787702730743
14085,CA069,"San Benito County, California","Davis, CA",863859,-121.1203156,-42.19966125,7.162828306000001,22.267046,0.14640228800000002,1.335478028,28.42970133,32.32819566,39.24205533,34.24142857,2.9692682930000003,616.5549187,0.9984045866272286,0.8391866791129866
14094,CA606,"Trinity County, California, Weaverville Area","Davis, CA",196000,-122.9659271,-41.10771179,6.144241791000001,13.58042877,0.082577133,0.595554479,23.74382671,29.34269144,46.89375706,51.78404348,3.1789975989999997,954.4177463,0.9958966058281797,0.8390078049821852
14212,AS630,"American Samoa, Islands of Aunuu, Ofu, Olosega, Tau, and Tutuila","Davis, CA",48768,-170.1326904,-91.89621735,6.205566424,37.95861219,0.095781831,4.052148825,26.67310094,30.60775678,15.63190308,50.77617373,2.90596623,266.00881680000003,0.9892855919442994,0.8383755966931136
14123,CA665,"San Luis Obispo County, California, Paso Robles Area","Davis, CA",687000,-120.7037354,-42.45347595,7.276376077999999,18.54198887,0.1452341,1.486462433,26.72608546,32.75102274,40.52289229,32.87478451,3.11161319,402.0355818,0.9995717426641522,0.8363263333609338
14560,WV021,"Gilmer County, West Virginia","Morgantown, WV",217400,-80.83128357,-20.94394875,5.077358291,19.00394692,0.134064765,0.92519496,28.20712124,53.5344081,18.22947634,40.1559153,3.2021931439999998,294.7414951,0.9946530288548017,0.835545959141641
14559,WV017,"Doddridge County, West Virginia","Morgantown, WV",205200,-80.71987915,-20.71771049,5.00438581,20.50211754,0.13850747900000002,2.163926898,32.01050055,49.78334402,18.08442441,34.741128700000004,2.914805261,278.60967489999996,0.9945009600699664,0.8342988537487606
11206,ID600,"Seven Devils Area, Idaho","Bozeman, MT",217950,-116.51310729999999,-35.5931778,6.342853655,14.61986455,0.09656477599999999,3.0954794160000003,20.44298712,39.775701399999996,39.78131165,51.72313793,3.00064378,1447.266291,0.9935631027015653,0.8339060492216407
14746,KY616,"Estill and Lee Counties, Kentucky","Morgantown, WV",298797,-83.82466125,-23.01787567,5.5192168,18.45871482,0.131642237,1.535332137,26.18641739,49.33542053,24.47816201,32.86850702,3.5112109830000002,337.7318753,0.998606267422462,0.833254122750964
14699,KY057,"Cumberland County, Kentucky","Morgantown, WV",198892,-85.40834045,-24.2983036,5.9890519,11.71391254,0.143865955,0.532915418,28.55741836,44.34557939,27.09700283,29.65446741,3.1166777339999996,239.2783159,0.9936327026069511,0.8323962265994371
14590,WV603,"Randolph County Area, Main Part, West Virginia","Morgantown, WV",599469,-79.81467438,-20.4804039,4.938388735,21.35670894,0.110421533,2.552850838,20.87075111,45.86308775,32.90152207,29.86209316,3.0584060539999998,547.8138826,0.9990114136572447,0.8303878047146636
10476,WA632,"Olympic National Forest Area, Washington (Parts of Clallam, Grays Harbor, Jefferson, and Mason Counties)","Portland, OR",690075,-123.6179733,-37.79204941,5.283436291,15.1702736,0.08095714,7.719416037,13.94658665,34.88103601,51.17237733,56.30051527,2.5477253319999997,637.5122232000001,0.997983818187284,0.8300021728088413
14597,WV611,"Marion and Monongalia Counties, West Virginia","Morgantown, WV",433600,-80.13080597,-20.188694,5.372402478,18.03776219,0.130530126,1.439633643,27.34858502,49.18269958,23.25301784,27.44594242,3.216348965,306.8337633,0.9976807725213517,0.8299733576110073
14762,KY634,"Powell and Wolfe Counties, Kentucky","Morgantown, WV",257927,-83.63500977,-22.81181335,5.216787978999999,16.05984994,0.130082215,1.5961747309999998,22.35934667,45.42876468,32.21188904,36.11992907,3.4644626819999997,363.3184905,0.999402537028926,0.8294184395044365
14567,WV043,"Lincoln County, West Virginia","Morgantown, WV",281000,-82.05360413,-21.92871475,4.9220984780000006,21.15058022,0.122791859,4.007300547,25.41514811,45.89346753,28.57494255,42.57858632,3.486359129,305.4968409,0.9966000245669547,0.8282327111356083
14154,CA702,"Klamath National Forest Area, Parts of Siskiyou County, California, and Jackson County, Oregon","Davis, CA",1789585,-122.6621094,-40.30638123,6.049139616000001,12.88002146,0.093371262,1.09472362,20.46269892,32.01960993,47.47611193,48.31720792,2.846261807,1291.4491369999998,0.9939302153188944,0.8275111400137095
14575,WV075,"Pocahontas County, West Virginia","Morgantown, WV",602600,-79.99068451,-20.79100037,5.119979376,12.67635174,0.119171099,4.170009361,22.33787684,50.02612972,25.86678989,31.37992362,2.893209857,589.5853901,0.9983835645846444,0.8269319729950191
10418,ID656,"Adams-Washington Area, Parts of Adams and Washington Counties, Idaho","Portland, OR",1105296,-116.6990051,-36.00196457,6.92476906,23.04322032,0.126942141,1.4980714590000002,28.32831713,35.92557862,35.74442312,27.48768807,2.432302451,1110.8791130000002,0.9943286603431825,0.8256331157022849
36527,NM780,"Carlsbad Caverns National Park, New Mexico","Phoenix, AZ",46762,-104.5276489,-36.16495895,7.549361345,18.58064954,0.047783224000000006,4.659339883,23.65637542,42.24616794,34.09745664,39.15733356,1.261607817,1477.442574,0.9931175279354806,0.824658685104851
14169,CA772,"Los Padres National Forest Area, California","Davis, CA",1694758,-119.7565765,-42.15948486,6.57998902,12.70866844,0.117709109,0.660322867,20.99377245,25.43498344,53.57124492,45.35926402,2.2277038730000003,1143.0957970000002,0.9943464353250556,0.8241154192062665
14193,HI950,"Island of Molokai, Hawaii","Davis, CA",168800,-157.01028440000002,-67.8316803,5.995015114,25.82397442,0.08467880300000001,3.406434066,28.727176500000002,33.17493823,14.91624698,32.63888372,3.3196883510000004,519.7517971,0.9981382549363751,0.8220216038944415
11212,ID617,"Idaho County Area, Idaho, Western Part","Bozeman, MT",750785,-116.09809879999999,-35.14650726,6.81070739,23.66583938,0.13859707300000002,3.066151651,26.26419045,42.71504453,31.02076519,39.30250522,3.3434721880000002,1033.905844,0.9954914445053623,0.8202489601911959
14114,CA649,"Mariposa County Area, California","Davis, CA",478852,-120.05924990000001,-41.26998138,6.218056446,13.93722634,0.15118684300000002,0.7710969740000001,22.64809994,32.92727073,44.42462933,32.51941766,2.050442242,556.2449156,0.9985434710841032,0.8194803272077446
14556,WV007,"Braxton County, West Virginia","Morgantown, WV",330700,-80.73690796,-20.96751213,5.220223476,14.81079604,0.124134784,5.504882765,30.58504343,47.832333899999995,21.53930366,39.35113079,3.415751948,310.79836980000005,0.9969836389392348,0.8187508269235384
14528,VA121,"Montgomery County, Virginia","Morgantown, WV",233300,-80.39666748,-21.598083499999998,5.412315722000001,11.54076369,0.084304512,0.647256308,28.92673476,42.16979574,28.90346902,27.59311891,3.077168848,605.0687369,0.9981235305594758,0.816515138052536
14539,VA173,"Smyth County, Virginia","Morgantown, WV",217700,-81.55303192,-22.31593895,5.477779593999999,9.741595822,0.10515416,0.8215758559999999,33.94042539,38.19065618,27.41116943,30.73187739,3.206272391,725.2783551,0.996921512445217,0.8135756528184634
14514,VA051,"Dickenson County, Virginia","Morgantown, WV",214000,-82.34484863,-22.59007835,5.177960864,10.00687035,0.10797053599999999,1.47706556,17.85170107,44.42799402,37.72030525,47.80306387,3.36767945,537.3996565,0.9990686147796829,0.813545658006479
14815,TN013,"Campbell County, Tennessee","Morgantown, WV",317500,-84.13818359,-23.86102867,4.99122355,17.69945875,0.11256886,0.554245526,28.79474717,42.29457855,28.75447051,36.73315146,3.6674263889999996,469.3778752,0.9998284160458862,0.8127169232438795
15202,MO213,"Taney County, Missouri","Morgantown, WV",416871,-93.04035187,-28.13354683,6.45138109,22.3806045,0.097712575,1.264539861,41.36975697,36.08775124,22.54249145,24.15213709,2.305992406,298.4513696,0.9966879952296245,0.8123682966771165
14503,VA005,"Alleghany County, Virginia","Morgantown, WV",290300,-79.95654297,-21.00335503,5.077579186,6.121322935,0.09986235800000001,0.499228176,20.587187600000004,42.81029858,36.57697465,36.71827488,2.697530027,732.7604713,0.9971303662146989,0.8110071683223439
14170,CA776,"Angeles National Forest Area, California","Davis, CA",680324,-118.2144623,-41.72519684,6.706757362,9.635777127999999,0.11118841900000001,0.797681924,14.14305356,28.43682527,57.420121200000004,57.93353721,2.217369701,1179.566675,0.9944799178518475,0.8104709732656534
14689,KY025,"Breathitt County, Kentucky","Morgantown, WV",316896,-83.26423645,-22.80924416,5.1632514380000005,12.97853692,0.115032798,1.97721111,20.49759604,44.93111477,34.57128929,42.16994238,3.595265885,452.5105115,0.9996441277026822,0.8079595108350912
14611,OH081,"Jefferson County, Ohio","Morgantown, WV",262342,-80.76894379,-20.22062302,5.792798355,20.15761433,0.11606153699999999,0.8299012840000001,27.93313567,49.07188542,22.99240303,25.58069456,3.5714937819999997,339.50212880000004,0.9985593484433188,0.8072009060457852
14566,WV041,"Lewis County, West Virginia","Morgantown, WV",249300,-80.51455688,-20.78874397,5.357450139,30.32149495,0.134275802,1.6390700980000001,31.92138672,50.01296532,17.99784741,39.39183427,3.1996280180000003,341.958594,0.996790272390694,0.8070449579441854
20255,WV621,"Gauley River National Recreation Area, West Virginia","Morgantown, WV",11256,-81.00254822,-21.37163734,4.741258223,8.480783293,0.10912071599999999,2.84341022,20.2558227,43.64795626,34.62106931,38.29870564,3.0227885239999996,427.7253351,0.9995169718130172,0.8058809940798943
14584,WV109,"Wyoming County, West Virginia","Morgantown, WV",321200,-81.54001617,-21.90458107,4.860894200000001,11.24627953,0.09460348699999999,2.530524675,19.04889566,40.47210674,40.47494096,50.42416373,3.43178737,158.5313119,0.95340433013554,0.8051195862080693
10406,OR666,"Trout Creek - Shaniko Area, Oregon","Portland, OR",938960,-120.7520447,-37.99326324,7.386614359,23.56773279,0.138531273,1.785523261,31.1278479,40.72057842,28.18168847,27.0010397,2.6369060109999998,872.1622295,0.9959613269084289,0.8048237342477816
14768,KY641,"Magoffin and Morgan Counties, Kentucky","Morgantown, WV",443635,-83.19244385,-22.69593239,5.058743521999999,16.49906084,0.114162035,1.6307108030000002,20.379732500000003,42.49398719,37.12628036,37.81625256,3.600363238,437.65900619999996,0.9997594929131179,0.8047082873800108
10380,OR604,"Baker County Area, Oregon","Portland, OR",1340238,-117.5480652,-36.24162292,7.210668344,20.4025952,0.12085357599999999,1.542246653,27.96460342,39.42542199,32.55467765,25.51385995,2.609032031,1178.279002,0.9938574429952812,0.8005219472684173
14157,CA707,"Shasta-Trinity National Forest Area, Parts of Humboldt, Siskiyou, Shasta, Tehama, and Trinity Counties, California","Davis, CA",2727538,-122.53523249999999,-40.70467758,6.253464414,12.2258528,0.09828203099999999,1.248792607,17.49403976,28.64947149,53.84973214,44.50146129,2.4704472269999997,1291.580064,0.9936494502600784,0.7993956266936963
14558,WV015,"Clay County, West Virginia","Morgantown, WV",221700,-81.05085754,-21.27696037,4.822088357,14.68236325,0.119413239,4.402665695,28.49682884,44.34138035,27.16165326,39.36342843,3.557589824,280.8361958,0.9958996845888141,0.7980290538514827
14098,CA612,"Butte Area, California, Parts of Butte and Plumas Counties","Davis, CA",919213,-121.55901340000001,-40.87686157,6.662597047,19.8111142,0.126758856,1.3412700640000002,27.49917425,32.59910771,39.47757663,16.6042992,3.369589702,391.9699178999999,0.9987312747827195,0.7967573913023919
28077,WV713,"Mercer and Summers Counties Area, West Virginia","Morgantown, WV",493607,-81.01113892,-21.7127533,5.07715886,9.248035794,0.12204959,2.332886514,20.04345901,53.11895089,26.45706095,34.81955435,2.97756648,342.0950127,0.9980429712289894,0.7967365226086968
10401,OR649,"Douglas County Area, Oregon","Portland, OR",2259471,-123.47979740000001,-40.02060699,5.552474953,18.25497694,0.146876132,3.714802404,30.36256588,37.99564235,31.58070541,43.21539816,3.6191536460000004,511.479984,0.9996167401528123,0.79607530583952
14190,OR632,"Jackson County Area, Oregon, Parts of Jackson and Klamath Counties","Davis, CA",1585308,-122.5817337,-39.96482849,6.097694074,21.82069775,0.140194719,2.65879334,30.10844425,34.53397367,35.60482372,27.55753333,3.2896617160000003,944.5600755,0.9953394720747422,0.7943426967845476
14601,WV628,"Grant and Hardy Counties, West Virginia","Morgantown, WV",681600,-78.99766541,-19.87319946,5.164328071,10.00226586,0.097983081,1.392718856,19.99226658,42.92354522,36.81903649,27.59453446,2.841494857,325.63494269999995,0.9986468559560377,0.7941427076264723
15144,AR137,"Stone County, Arkansas","Morgantown, WV",390163,-92.12725067,-28.06554031,5.357733196,14.83000073,0.107532401,0.9883418620000001,30.68532682,35.78228949,33.53238396,22.27016067,3.308213528,347.1394998,0.9993145014836807,0.7926495658576805
14865,TN135,"Perry County, Tennessee","Morgantown, WV",271100,-87.84605408,-26.11275291,5.061866093,11.22682731,0.118110613,0.521028273,27.1191034,49.73917756,23.14171924,30.25602973,3.1856779769999997,200.25207859999998,0.9848335834168268,0.7910747502640277
14696,KY051,"Clay County, Kentucky","Morgantown, WV",301370,-83.73730469,-23.28392982,5.154890083,14.57312898,0.114911099,2.269142382,20.88479963,47.59743579,31.51776461,39.52362939,3.7239081919999997,497.77808030000006,0.9995464124271898,0.7868535244871399
20810,WV705,"Fayette and Raleigh Counties Area, West Virginia","Morgantown, WV",747479,-81.16083527,-21.62112427,4.929669255,9.188625392,0.105609045,2.684389235,19.63186343,43.11430596,35.93316794,36.91952931,3.297540057,376.8702126,0.9992932368860347,0.7865617914203554
14574,WV071,"Pendleton County, West Virginia","Morgantown, WV",446800,-79.35365295,-20.3227005,5.225483207,8.07407303,0.098231414,1.0647599970000001,19.63387915,37.44134662,42.01771179,34.29874093,3.1139810000000003,259.9243997,0.9943423940695533,0.7855635187853534
14973,VA017,"Bath County, Virginia","Morgantown, WV",344100,-79.74652863,-20.79911613,5.029822056,6.350707272999999,0.10345486,0.49127273899999996,21.36215162,41.82606178,36.81163884,36.03847155,3.0926146180000003,557.0524868,0.9986919144964621,0.7843043294808763
11262,MT619,"Flathead National Forest Area, Montana","Bozeman, MT",1671800,-114.0752258,-32.81295013,6.253639531,18.80730799,0.10935612900000001,2.183711586,18.91290961,44.95869717,33.92875171,43.42617286,3.2544182530000003,1519.586876,0.9930650688932142,0.7840289745060439
14130,CA672,"Northern Santa Barbara Area, California","Davis, CA",831979,-120.0533447,-42.46760559,6.767539747000001,16.48178634,0.11819051300000001,1.233711051,22.10562916,28.57419246,49.31045372,29.78529518,3.5288633739999997,405.36936430000003,0.998527063740941,0.7823114696135918
14913,WV065,"Morgan County, West Virginia","Morgantown, WV",147000,-78.24529266,-19.31525612,5.062525852,13.36716674,0.098081902,2.1761634030000003,18.99713946,42.44556071,37.97294051,26.03510848,2.847664038,158.6884897,0.971599693480157,0.7812306835578118
10408,OR670,"Wallowa County Area, Oregon","Portland, OR",959309,-117.2724915,-35.74626923,6.783973446,24.26395058,0.14298939800000002,2.283426151,26.09119021,46.45736087,27.44394933,28.49640774,2.348891446,1212.104955,0.9939798298259647,0.779846629446035
14859,TN123,"Monroe County, Tennessee","Morgantown, WV",417700,-84.23222351,-24.36716843,5.130535342,12.55459742,0.126052017,0.639452592,29.05866686,42.61067056,28.15102809,26.86616274,3.3384745610000004,583.5689924,0.9983184266792595,0.7795834227191214
12740,PR689,"Humacao Area, Puerto Rico Eastern Part","Raleigh, NC",444018,-65.78189087,-23.65410233,6.0741764510000005,27.11468581,0.12318506900000001,1.727415731,32.10091082,30.60700313,36.16212526,26.25869273,3.2780146739999996,193.7821622,0.9831186860550251,0.7795579018592725
12869,PR690,Virgin Islands of the United States,"Raleigh, NC",84480,-64.82533264,-23.44558334,6.8797221660000005,35.59600108,0.062943216,2.8175253560000004,28.25855057,32.81743406,38.48271316,31.93703631,2.413110081,551.5204819,0.9986846558915441,0.7794165340340597
14196,HI980,"Island of Maui, Hawaii","Davis, CA",470000,-156.33827209999998,-67.70242309999999,6.005964719,20.15960997,0.09323519699999999,4.053448995,23.84744217,28.25466649,18.65163697,26.44699752,3.1424082110000002,827.8076107,0.9945923165926268,0.7793106042455159
14194,HI960,"Island of Kauai, Hawaii","Davis, CA",357200,-159.5402985,-68.71203613,5.543213021000001,17.75229857,0.097803276,4.128097268,30.159444099999998,28.29072804,13.54346485,39.51880661,3.71824508,622.148597,0.9968818660767156,0.7786942177176267
59977,AR089,"Marion County, Arkansas","Morgantown, WV",409800,-92.64889526,-28.17214775,5.747115585,17.91243937,0.098365484,1.777131789,35.9978098,38.51263201,25.48955839,20.73909164,3.156080854,302.0721339,0.9978854087815759,0.7737426641589352
28076,WV767,"Nicholas County Area, West Virginia","Morgantown, WV",412064,-80.83387756,-21.1786499,4.694014327,10.42054029,0.122819094,2.873029543,21.41286575,41.92667142,36.03193049,33.46743527,3.062593508,648.6393168999999,0.9979273078164212,0.773378487515785
14508,VA027,"Buchanan County, Virginia","Morgantown, WV",322300,-82.02720642,-22.35087776,5.168956678,13.4888503,0.10133212,1.750909316,19.73713647,45.41906166,34.84380215,54.18934091,3.922598638,565.0823932,0.9990600648948211,0.7730726149010638
20269,WV623,"Bluestone National Scenic River, West Virginia","Morgantown, WV",4335,-80.98413086,-21.71051025,5.2396855460000005,30.80409614,0.12958651599999998,1.8084632090000001,26.7439183,52.06839413,20.78807291,44.48632125,3.589640772,556.2026889,0.9990511901400577,0.772150164537396
20305,VA606,"Jefferson National Forest, Virginia","Morgantown, WV",678279,-81.17691040000001,-21.38254166,4.969163957,6.460574096,0.108659962,3.6309905430000002,18.5383914,33.83352653,42.85687651,37.57170497,2.52090896,904.2816867999999,0.9954006890765124,0.7720728592527492
12737,PR686,"San Juan Area, Puerto Rico","Raleigh, NC",458042,-66.23300934,-23.94077682,5.62036367,26.78824613,0.12055809,2.098137922,40.95777919,33.58471404,25.11910813,34.93268558,3.4473466580000003,331.94234460000007,0.9975145466413586,0.7716101524360084
14580,WV097,"Upshur County, West Virginia","Morgantown, WV",227000,-80.22691345,-20.68015099,4.916773023,13.70154685,0.119254328,2.8279811710000002,24.13010061,46.36592069,28.48901193,25.66742744,3.2012123839999997,543.1786185,0.9986536660212159,0.7688567691372077
10496,WA681,"Yakima Training Center, Parts of Kittitas and Yakima Counties, Washington","Portland, OR",325616,-120.1898041,-36.68223572,7.334582592,17.72047644,0.117209984,1.124631497,27.64042053,38.93560189,33.4239777,19.00311945,2.106115625,685.3863152000001,0.9969054845781314,0.7666167299944182
28768,AK622,"Skagway-Klondike Gold Rush National Historical Park, Alaska","Portland, OR",193267,-135.40847780000001,-37.87704468,5.308861707,27.17449681,0.030669226,7.6531221270000005,1.713905663,10.12025477,26.1671895,54.97980495,1.192301743,829.4709219,0.9933955482332255,0.7661661317049022
14596,WV610,"Harrison and Taylor Counties, West Virginia","Morgantown, WV",379000,-80.24926758,-20.39681816,5.362088796,16.76872915,0.136424286,1.121252143,27.42860594,52.2617295,19.98100457,27.91565292,3.3428389989999996,335.8588483,0.9980517687623314,0.7658173085833159
14645,PA057,"Fulton County, Pennsylvania","Morgantown, WV",280256,-78.12268066,-19.07089424,5.206831004,20.20786035,0.08980144400000001,0.8869818829999999,20.46754497,42.73174189,36.81354646,21.25390643,2.615756984,331.5188229,0.9985519409964865,0.7639999481549221
14701,KY063,"Elliott County, Kentucky","Morgantown, WV",150643,-83.07957458,-22.44600105,5.087085911,27.15881094,0.116917026,1.6419948219999998,21.63737948,45.73638782,31.95142784,32.42886858,3.5128592000000003,358.19987599999996,0.9989111447894161,0.7634843979279691
14600,WV624,"Calhoun and Roane Counties, West Virginia","Morgantown, WV",489200,-81.26577759,-21.23155212,5.087498597,22.07040405,0.151095501,4.0831187689999995,35.394146299999996,50.74048548,13.83499971,39.48551247,3.25907159,257.8459288,0.9898270159218664,0.7632444914378401
14723,KY195,"Pike County, Kentucky","Morgantown, WV",504806,-82.34870148,-22.38423538,5.607883827,9.732280354,0.123384511,2.0267246830000003,18.57244012,41.15746405,40.27009585,48.62817418,3.728726547,424.2472052,0.9989288817607355,0.7632382631500834
14777,MD001,"Allegany County, Maryland","Morgantown, WV",269600,-78.69044495,-19.4376545,5.020523572,11.22524641,0.106242324,1.8841634790000001,20.2637891,44.52127873,34.33343109,23.53678448,2.66571737,412.4067381,0.9992993849425484,0.7613283914896039
14880,TN163,"Sullivan County, Tennessee","Morgantown, WV",275100,-82.26441956,-22.71711159,5.412448489,20.11311274,0.124298627,1.172306628,33.98061732,43.73584125,22.2805206,24.65506809,3.4812467760000003,519.6330548000001,0.9987492937739847,0.7612184076568871
11205,OR631,"Wallowa-Whitman National Forest, Oregon","Portland, OR",2178304,-117.6006622,-36.09992218,6.412719476,15.38149728,0.123474029,3.4280274860000004,16.92099881,46.88596138,36.19304005,34.44419244,2.334857329,1567.9745480000001,0.9925749441564814,0.7605622549452622
14978,VA021,"Bland County, Virginia","Morgantown, WV",158800,-81.15805054,-21.95104027,5.176277703999999,7.516631604,0.116474033,0.7539497470000001,27.71502472,37.74868839,34.53628704,29.03218655,3.122445921,783.563366,0.996306104590088,0.7567288331092414
14603,OH013,"Belmont County, Ohio","Morgantown, WV",346835,-80.96995544,-20.42629814,5.777289414,19.51059114,0.131762178,0.829890034,30.27779712,51.07831266,18.64388928,24.96178281,3.462977122,339.4617313,0.9979697105835745,0.7551711511023698
14570,WV051,"Marshall County, West Virginia","Morgantown, WV",199500,-80.69464111,-20.39904022,5.929151285,18.88268446,0.14023223699999998,1.078693401,27.75497477,53.87449253,18.37053294,32.52145803,3.631551533,154.2745055,0.9585806319897956,0.7534775542817918
14099,CA619,"Nevada County Area, California","Davis, CA",341966,-121.04833980000001,-40.90571976,5.890023299,15.41614641,0.145637465,1.704667336,24.92535557,34.76983549,39.24823713,25.24311022,3.592341769,689.1858030000001,0.9970903247853511,0.7525836988655414
14612,OH087,"Lawrence County, Ohio","Morgantown, WV",292480,-82.55158997,-21.94201851,5.325233275,22.85725207,0.133932926,1.1040963959999999,28.313835100000002,47.72176079,23.8669266,35.96724128,3.8549694010000004,307.06134060000005,0.9970666320965781,0.747489879419111
14767,KY640,"Lawrence and Martin Counties, Kentucky","Morgantown, WV",416307,-82.66786194,-22.3209343,5.379611214,17.38792554,0.10928107699999999,1.332706595,21.9685967,42.01118511,36.01724151,38.78219126,4.060997391,431.4611944,0.9998362063021623,0.7472711709950994
20685,CA788,"Pinnacles National Monument, California","Davis, CA",27096,-121.17259979999999,-42.34620667,6.131497079,12.55742,0.08467540800000001,1.2075221459999999,14.47005062,19.49407012,65.98952379,46.39367771,2.716516715,545.8659244,0.9962622150081454,0.7454852183238138
14582,WV101,"Webster County, West Virginia","Morgantown, WV",356000,-80.43086243,-20.979131699999996,4.761536181,10.28133026,0.118776399,2.584454923,21.33865186,45.62321001,32.39525455,37.83072828,3.30695544,1020.781133,0.9951576387304428,0.744973579272236
14555,WV005,"Boone County, West Virginia","Morgantown, WV",322000,-81.71703339,-21.84518051,4.782908423,9.926212063,0.098296145,2.724719351,17.10929176,41.37710472,41.51360352,46.99865629,3.656065392,356.2579607,0.9976586907651105,0.7442061263908428
14523,VA091,"Highland County, Virginia","Morgantown, WV",266100,-79.5592041,-20.56385994,5.084064529,7.33075682,0.109486838,0.5842932470000001,23.83167802,42.74836387,33.41966648,33.08707646,3.465998051,586.8940471,0.9984224179279628,0.7439840086105651
10475,WA631,"Jefferson County Area, Washington","Portland, OR",439482,-123.61117549999999,-37.53807449,5.624878315,22.32508329,0.087932753,2.485464583,17.79664794,43.04124715,39.18453483,24.21503447,3.251269231,176.80706980000002,0.9767110780739576,0.7428065098938389
14100,CA620,"Placer County, California, Western Part","Davis, CA",411544,-121.0824051,-40.98455811,6.160649727000001,12.78722753,0.12014607699999999,1.246402378,22.12561755,33.68534055,43.95090005,17.55727108,2.9506209830000003,473.5433396000001,0.9981849837673251,0.7424041416044189
10383,OR607,"Umatilla National Forest, Oregon","Portland, OR",1110281,-118.72497560000001,-36.39698792,6.447162733,16.5199046,0.13324260400000001,3.555023273,19.25761544,48.76278951,31.97855144,29.77340981,2.357408381,1459.692085,0.9928189942580354,0.7417048025468277
14914,WV608,"Hampshire and Mineral Counties, West Virginia","Morgantown, WV",623300,-78.80548096,-19.62537384,5.168437414,8.187627633,0.095066166,1.3041817340000001,17.84300938,41.54738903,40.03981036,25.29793609,2.519355224,288.96735060000003,0.9969499393420236,0.7367511365131731
14087,CA087,"Santa Cruz County, California","Davis, CA",286707,-121.95139309999999,-42.36720276,6.198949837000001,15.36686286,0.12303076,1.6293749880000001,20.45091931,25.20223741,54.31482661,38.06346082,3.537152663,467.1653858,0.9980344221322047,0.7366225391364641
14270,NV772,"Storey County Area, Nevada","Davis, CA",162180,-119.5242004,-40.04118347,7.340472826,22.15886319,0.109248514,0.7686515340000001,28.994237100000003,28.64057061,42.3766042,30.25077483,1.4864683019999998,1631.522614,0.9920876236358952,0.7363036286783919
14608,OH067,"Harrison County, Ohio","Morgantown, WV",262746,-81.10263062,-20.35300636,5.9142343020000006,22.40026658,0.110124858,0.862357829,27.944384600000003,46.708296399999995,25.34359221,26.97471711,3.952086753,336.98963849999996,0.9987297636638569,0.7360118137033791
14519,VA069,"Frederick County, Virginia","Morgantown, WV",266000,-78.28858185,-19.51250267,5.350464494,8.588021636,0.10073621199999999,1.3074882829999999,27.10357749,42.99203714,29.90303361,20.53798349,2.7877161010000004,382.9294598,0.9991997494970546,0.7354282458276226
14524,VA105,"Lee County, Virginia","Morgantown, WV",260600,-83.22575378,-23.091257100000004,5.601257412000001,10.24762572,0.123795319,0.450039631,36.09176506,38.41804199,25.49019295,31.63205164,3.65672622,628.4235145,0.9978585463006006,0.7334922500621115
14874,TN607,"Scott County Area, Tennessee","Morgantown, WV",273400,-84.47438049,-24.04285431,4.984369765,6.00555349,0.128403682,0.769997261,24.13999686,45.19309245,30.66691105,32.90161271,3.236165815,520.8013972,0.9989323676990278,0.7310383515217179
14557,WV011,"Cabell County, West Virginia","Morgantown, WV",184400,-82.27740479,-21.90956879,5.068064183,24.95731835,0.145980765,1.923839053,30.74693366,49.76702371,19.45920922,32.707001399999996,3.411699543,264.69031609999996,0.9930593307667649,0.7310124391139718
14623,OH163,"Vinton County, Ohio","Morgantown, WV",265548,-82.5115509,-21.61608315,4.960700438,13.25616791,0.127323905,0.7802988940000001,22.65315241,43.02783994,34.31872507,27.39473475,3.481398617,342.03006610000006,0.9992669310854968,0.7303443331107028
14907,WV620,"Logan and Mingo Counties, West Virginia","Morgantown, WV",562800,-82.01384735,-22.04789543,4.7163232960000006,7.308438294,0.089058303,2.977052441,17.30379098,38.76677662,43.88205031,47.27037755,3.566444183,486.6158768,0.9988359013125152,0.7296583827039659
12739,PR688,"Ponce Area, Puerto Rico Southern Part","Raleigh, NC",313037,-66.55511475,-24.15989685,6.681977237000001,29.72367659,0.137381793,1.8704961530000002,37.35495004,37.27597308,25.36696759,32.60037253,3.511348167,225.97597280000002,0.9876477135985846,0.7289681600234307
14848,TN101,"Lewis County, Tennessee","Morgantown, WV",180800,-87.49324036,-25.93523979,4.916562798999999,8.063966456000001,0.11442752,0.508964644,25.1921569,51.08088605,23.72695767,29.27860735,3.205906096,253.9278711,0.9937387810281536,0.7283201274989798
14755,KY627,"Knox and Eastern Part of Whitley Counties, Kentucky","Morgantown, WV",387031,-83.87148285,-23.48946953,5.046416891000001,21.87886221,0.137636651,1.6404469330000002,25.94369904,49.23066682,24.82563401,33.38774373,3.7207977210000003,288.28652430000005,0.9961380968370558,0.727361807677029
10420,ID660,"Gem County Area, Idaho","Portland, OR",298429,-116.47036740000001,-36.21043396,7.210252402999999,18.61964098,0.131193695,1.398313247,21.71754431,32.46696996,45.80792807,25.49615709,3.0806218010000004,985.3687136,0.9947671777020629,0.7263160484635223
14884,TN171,"Unicoi County, Tennessee","Morgantown, WV",119300,-82.41842651,-23.13412666,4.964145151,8.155725744,0.124076626,1.7791613119999998,16.33518398,36.59794238,46.92884354,39.92965299,3.094707895,846.866269,0.996156282500665,0.7261440139090124
14543,VA195,"Wise County, Virginia","Morgantown, WV",228900,-82.58862305,-22.74654388,5.6977460660000006,9.343231285,0.10992607300000001,0.875265703,19.00230546,44.44439262,36.55330233,43.7914826,3.978387475,526.3825872,0.9991667880112531,0.7259135118215252
14507,VA023,"Botetourt County, Virginia","Morgantown, WV",284497,-79.82004547,-21.13204193,5.307870957,11.60256288,0.10596733300000001,0.66001825,33.29126724,36.00245269,30.70628021,25.56259235,3.5694308919999997,494.9351665,0.9989354658644118,0.7249871455211999
18158,OR601,"Alsea Area, Oregon","Portland, OR",177736,-123.82827759999998,-39.68808746,5.144014964,20.17066426,0.160206931,5.2548553469999995,24.82610095,38.23033699,36.86782205,43.10856175,3.480399307,486.7998842,0.9997073933465558,0.7246339991574802
14588,WV602,"Tucker County and Northern Randolph County, West Virginia","Morgantown, WV",335531,-79.56381989,-20.21269989,4.978415613,35.14779713,0.112784792,2.61446773,20.74202184,47.162817,31.61405198,30.26774851,2.842250785,560.4225324,0.9987334313132069,0.7238318376042828
86877,OR626,"Malheur National Forest, Oregon","Portland, OR",1586207,-118.85007479999999,-37.22981644,6.502403543,17.47961273,0.129088622,3.795400434,20.22830734,46.15839116,33.61327593,27.84470987,2.351944911,1527.6404630000002,0.9924886801015229,0.7222072811791684
14765,KY638,"Bell and Harlan Counties, Kentucky","Morgantown, WV",530867,-83.40643311,-23.13646507,5.064563407,13.29561006,0.112711312,2.054886633,19.66644508,43.73436272,36.59919226,41.19139827,3.961069363,580.0469505,0.9989378453649733,0.7210181688534246
15110,AR051,"Garland County, Arkansas","Morgantown, WV",470023,-93.09936523,-29.20107079,5.218594391,8.523226625,0.112828262,0.618902442,27.76637081,44.81147589,27.42215345,22.34333419,3.0930933210000005,333.3920426,0.9988298294131119,0.717876899223572
14614,OH111,"Monroe County, Ohio","Morgantown, WV",292730,-81.07022095,-20.6407032,5.077420453999999,20.78249405,0.15498004599999998,1.036482012,30.11369133,50.83495038,19.04846029,29.81896696,3.1814562310000003,321.1601014,0.9974288674352034,0.7167252238593638
14606,OH053,"Gallia County, Ohio","Morgantown, WV",301498,-82.33917236,-21.75636101,5.256528666,20.80262817,0.130056533,0.801621612,28.8130815,45.20045083,25.88443763,25.57478487,3.699631291,259.13507230000005,0.9952021360984153,0.7165552510866077
14817,TN019,"Carter County, Tennessee","Morgantown, WV",222500,-82.13774109,-22.91486931,5.119266929,13.09473384,0.11930774400000001,1.135204519,21.46725419,33.12249621,45.20669388,35.27156079,3.645202235,760.5907662999999,0.9968098265945141,0.716428405078487
14674,PA061,"Huntingdon County, Pennsylvania","Morgantown, WV",569734,-77.96697998,-18.80754471,5.052402508999999,16.40978855,0.100675766,1.1108671159999999,20.55002254,40.56501864,38.24524986,22.28631928,3.329942351,400.2480414,0.9993042145308083,0.7163847014376546
14743,KY612,"Carroll, Gallatin, and Owen Counties, Kentucky","Morgantown, WV",381574,-84.95687866,-23.12098503,6.833755098999999,20.88366612,0.12633107400000002,0.930550372,39.78432943,51.82809424,8.387576364,21.17967543,2.438140747,252.214783,0.9889841384970477,0.7148143026530399
14754,KY626,"Knott and Letcher Counties, Kentucky","Morgantown, WV",442983,-82.85951996,-22.80550575,5.276458251,14.14859188,0.116206042,1.662113154,19.27089691,44.07680549,36.65229802,42.76664046,4.078794412,503.6260393999999,0.9994773633216748,0.7142855720954945
14120,CA660,"Tulare County, California, Central Part","Davis, CA",815360,-118.96583559999999,-41.41823959,6.759446425,15.51446591,0.09141121699999999,1.163432347,23.7926465,24.28501993,51.92233417,25.44045799,3.142279568,609.7249363,0.9970424800310328,0.7141670600471772
14810,TN001,"Anderson County, Tennessee","Morgantown, WV",220600,-84.19583893,-24.01559639,5.059619097,14.91869484,0.11966405199999999,0.672625685,33.80307586,44.92414272,21.26919843,29.22557234,3.736237811,466.095755,0.9992461833469904,0.7135565405044298
14160,CA713,"Plumas National Forest Area, California","Davis, CA",1581944,-120.7648621,-40.26548004,6.260321633999999,13.12476693,0.097610617,0.9427193229999999,20.93093844,28.55544909,50.50739448,37.31598802,3.1113747939999996,1464.836625,0.9927250976399239,0.7112278738086037
14531,VA155,"Pulaski County, Virginia","Morgantown, WV",188300,-80.71778107,-21.81785774,5.287222106000001,9.912055577,0.127604437,0.81870199,31.305208399999998,39.70286785,28.99192388,26.41212272,3.577622313,452.3024895,0.9993474759008244,0.7094282104265811
19764,TN609,"Blount County Area, Tennessee","Morgantown, WV",265100,-83.93045807,-24.10875702,5.338421113,14.09229405,0.126867044,0.7579387190000001,32.0483476,39.20887977,28.72438278,21.47600846,3.5269843730000003,408.35774460000005,0.9993817367858464,0.7086710105054782
14535,VA165,"Rockingham County, Virginia","Morgantown, WV",553600,-78.85520935,-20.1397419,5.261417778,9.557285043,0.10986398800000001,0.986416981,30.31542844,33.42419679,36.25127275,25.25547574,3.474420887,556.8551105,0.9981878653529693,0.7081109927420589
14679,PA081,"Lycoming County, Pennsylvania","Morgantown, WV",796013,-77.02359009,-17.68948936,5.069176538,8.812704833,0.097003616,0.853900537,17.16491745,40.37569463,42.34195429,24.50220992,2.606658687,422.9073284,0.9988270307503486,0.7080541360566726
14602,OH009,"Athens County, Ohio","Morgantown, WV",325446,-82.01015472,-21.27075195,5.70075068,18.31634924,0.13546318300000001,0.636533102,29.77301909,47.60253134,22.62441044,27.53674188,3.8652131030000003,299.82063989999995,0.9974321953150744,0.7079295813862354
14766,KY639,"Floyd and Johnson Counties, Kentucky","Morgantown, WV",422138,-82.78413391,-22.63920975,5.269237376,12.24213671,0.113219711,1.9203367919999998,17.27534998,38.33780124,44.38684891,45.26715416,3.9650769639999996,463.1760861000001,0.9990850819651468,0.7074477002185656
10368,OR011,"Coos County, Oregon","Portland, OR",1042432,-124.09086609999999,-40.51769257,5.155521084,19.15499533,0.16193538,4.554123915,24.00346496,40.49739843,35.52208068,45.73636783,3.678826856,401.6740332,0.9994311971695962,0.7070758043091695
14638,PA037,"Columbia County, Pennsylvania","Morgantown, WV",313549,-76.42425537,-17.716180800000004,5.236217527,17.22456878,0.102225232,2.051687255,19.42627418,47.82481785,32.94824771,18.15426037,2.737957712,336.76434689999996,0.9982723018939395,0.7070179964829438
14533,VA161,"Roanoke County and the Cities of Roanoke and Salem, Virginia","Morgantown, WV",194484,-80.05083466,-21.36562538,5.16923984,7.975011662999999,0.105694391,0.658140738,25.96637079,36.90392879,37.1297005,29.18069668,3.520508538,699.4140706000001,0.9970657839365418,0.7068259175705477
14092,CA602,"Siskiyou County, California, Central Part","Davis, CA",907765,-122.58924099999999,-40.43240356,6.621830688999999,20.62312195,0.10649407300000001,1.016324024,22.80649152,29.78026297,47.43037339,24.73236606,3.1406368810000003,1136.19623,0.9938192758981425,0.706349140736788
14538,VA171,"Shenandoah County, Virginia","Morgantown, WV",327900,-78.58479309,-19.84787178,5.34115374,9.617858545,0.10943942599999999,0.898158087,30.19805692,36.39365731,33.40828639,20.79626822,3.221754556,511.26692879999996,0.9984197729604121,0.7061228810400113
14915,NC605,"Swain County Area, North Carolina","Morgantown, WV",127441,-83.56607056,-23.950529100000004,4.860622966,13.97629594,0.07427486400000001,2.1776007330000002,17.58860894,27.17542499,55.23596604,45.03455705,3.47589839,802.4908245,0.9964282377153554,0.7042273684215432
14579,WV085,"Ritchie County, West Virginia","Morgantown, WV",290400,-81.06912994,-20.900512699999997,5.186556552,27.50776654,0.13459911,2.112191805,34.34094076,49.77470705,15.8234215,27.90117456,3.303459838,269.9117088,0.9927629153744475,0.7042268534995153
14195,HI970,"Island of Lanai, Hawaii","Davis, CA",90400,-156.9337616,-68.03665924,6.514044052000001,20.89049431,0.073067985,1.090340336,27.83262139,29.17413803,10.74522602,21.18703181,2.99066611,439.7314733,0.9976703622500348,0.7039007439578489
14820,TN025,"Claiborne County, Tennessee","Morgantown, WV",283900,-83.68936157,-23.51885223,5.111248034,18.42431381,0.12081880199999999,0.547486798,35.51559538,40.57316371,23.42366199,29.96868609,3.847734731,468.8243114,0.9993677241832157,0.7029946295347608
14844,TN091,"Johnson County, Tennessee","Morgantown, WV",193700,-81.85261536,-22.69245148,4.94529486,9.835174532,0.114168054,1.0636122829999999,17.90367459,35.12263394,46.74543091,36.65191734,3.43138992,753.1505912,0.9967941963339788,0.702411504782163
11213,ID618,"Kooskia Area, Idaho County, Idaho","Bozeman, MT",316360,-115.87301640000001,-34.84382629,6.031050632,15.45261768,0.135367009,3.2053501460000002,17.90738527,38.44044418,43.65239806,38.50507161,3.638274936,1128.63564,0.9945868553413196,0.7003815223067495
14855,TN115,"Marion County, Tennessee","Morgantown, WV",333500,-85.6217041,-25.1887722,5.0871026619999995,15.56371656,0.109622872,0.754112523,26.01385885,28.53896051,45.3305156,21.64801748,3.056421631,409.7567639,0.9985641843338555,0.6992562833871866
15096,AR015,"Carroll County, Arkansas","Morgantown, WV",410599,-93.59164429,-28.58563042,5.55652414,21.95338948,0.094288132,1.809155436,36.37609768,41.313872100000005,22.30802244,18.04557955,3.046839585,341.6694842,0.9981674614393263,0.6988949034362498
14833,TN057,"Grainger County, Tennessee","Morgantown, WV",193700,-83.49398041,-23.5875206,5.213713397,16.26430399,0.130930183,0.610488226,36.24382639,38.70563988,25.04973619,26.49604183,3.620412232,386.53490510000006,0.999418562370471,0.6987872111140001
14816,TN015,"Cannon County, Tennessee","Morgantown, WV",170000,-86.04495239,-25.11831474,5.574363376,17.15143881,0.133205649,1.0575133890000001,35.92337931,45.79242371,18.28419707,20.53998434,3.1423963789999996,288.24352999999996,0.9962173956078518,0.6985723454225666
11251,MT603,"Lolo National Forest Area, Montana","Bozeman, MT",1883400,-114.3043365,-33.27420044,5.994885599,10.94399805,0.08670528,2.627330443,13.32805248,36.05480342,50.54582439,47.46761017,3.311713396,1539.367594,0.9928769684851649,0.6982756239313758
14197,HI990,"Island of Oahu, Hawaii","Davis, CA",395300,-157.96469119999998,-68.19689178,6.067483618,21.67674752,0.098111268,2.980089177,37.26024622,30.64207491,14.20298978,32.96482377,3.996042384,427.66445639999995,0.9985452554964236,0.6972008137832494
10395,OR637,"Lane County Area, Oregon","Portland, OR",1786545,-123.08966059999999,-39.24038696,5.377531528,20.2867003,0.16005644800000002,4.285524468,32.84208324,38.70148806,28.3827793,32.30566838,3.499262854,386.9133695,0.9997449060481932,0.6970021521535092
14912,TN640,"Great Smoky Mountains National Park, Tennessee and North Carolina","Morgantown, WV",522002,-83.52114868,-23.80783272,4.684513228999999,10.336732099999999,0.139807144,2.279447781,13.42649736,34.16439831,52.18129115,50.4631571,3.1216934160000003,920.1411353,0.9959140439856657,0.6969997696790521
14552,WV001,"Barbour County, West Virginia","Morgantown, WV",219500,-80.01805115,-20.43087959,5.017488538,11.58934112,0.127161455,1.368214852,22.95364464,51.43107243,25.61386367,22.91986787,3.0437000889999997,457.40231100000005,0.9988571584871768,0.6960575573835477
14136,CA678,"Orange County and Part of Riverside County, California","Davis, CA",584994,-117.7061462,-41.95438004,7.13555718,15.71527876,0.135998012,0.942380873,20.61688501,27.16665247,52.02457309,26.43584009,3.109754808,411.3694063,0.9979771308504285,0.6942575183400183
10409,OR673,"Wasco County, Oregon, Northern Part","Portland, OR",566730,-121.14363859999999,-37.89636612,7.06226692,15.15435925,0.152249274,1.44242214,19.95436989,45.33000359,34.71562682,21.78907542,2.8568250739999996,604.7976395,0.997840361026798,0.6930497100417685
14511,VA045,"Craig County, Virginia","Morgantown, WV",95600,-80.22084045,-21.33225632,5.1408950330000005,7.478829247,0.11991797800000001,0.801540293,26.22140845,40.75560831,33.02298333,23.68057552,3.1487387680000003,663.4779311000001,0.997115431342618,0.6928395721579663
15378,KY630,"McCreary-Whitley Area, Kentucky","Morgantown, WV",373740,-84.44152832,-23.756799700000002,4.996641114,23.67333804,0.125624058,0.947289473,27.81728271,50.59490151,21.57954422,36.57747348,4.026656325,442.2175103,0.9994256960369229,0.6925388194362123
18983,TN650,"Big South Fork National River and Recreation Area, Kentucky and Tennessee","Morgantown, WV",125000,-84.67431641,-24.08993912,4.893484979,4.78600973,0.12646663,0.931543766,19.93510904,34.70001469,45.36487681,33.08247246,2.942112883,378.3701659,0.9984908090961817,0.691951275330122
14542,VA191,"Washington County Area and the City of Bristol, Virginia","Morgantown, WV",349000,-81.97015381,-22.50695229,5.296073592,8.558636868999999,0.122913052,0.43565006799999995,34.09997626,44.04996635,21.85005728,27.60397602,3.4758853380000003,665.8097806,0.99722741815205,0.6916920353898107
10410,OR674,"Warm Springs Indian Reservation, Oregon","Portland, OR",650812,-121.42457579999999,-38.2397995,6.413829875,19.61610275,0.115279884,3.242290843,23.07495426,33.11284571,43.62172143,18.68688587,3.1801589669999997,991.3077530999999,0.994369089866526,0.6911059388620718
14554,WV003,"Berkeley County, West Virginia","Morgantown, WV",205900,-78.02609253,-19.27929115,5.564563082,15.56295019,0.116655245,1.530685331,27.58515985,43.04099407,26.91104211,15.72195999,3.2867289289999997,229.8340669,0.993582761572605,0.689776257089251
10404,OR657,"Willamette National Forest, Oregon","Portland, OR",1743659,-122.2054291,-39.15491867,5.4027289839999995,24.28392036,0.143128515,6.483866816,19.96245167,45.0513739,34.98617443,39.59032424,3.5849262939999997,933.7905461000001,0.996219188386658,0.6887109681986615
14885,TN173,"Union County, Tennessee","Morgantown, WV",158200,-83.83840942,-23.75322151,5.05280651,14.87289076,0.10539189,0.47682558399999997,37.36171813,41.09377137,21.026888600000003,29.91743558,3.830337611,407.17744480000005,0.99928153471424,0.6871300833899727
65277,MP646,"Islands of Agrigan, Alamagan, Anatahan, Pagan, and Sarigan, Commonwealth of the Northern Mariana Islands","Davis, CA",35328,145.74258419999998,81.09179688,6.717037964,9.110372227000001,0.10566169199999999,3.6096091589999997,6.9708310529999995,29.93082794,63.09834126,62.02502675,3.541986658,156.26981999999998,0.9185727143599498,0.6869755218726915
14678,PA605,"Juniata and Mifflin Counties, Pennsylvania","Morgantown, WV",515930,-77.42656708,-18.33779335,5.112440998,15.85964691,0.10208354900000001,0.97743198,21.79333322,39.11607518,38.584385100000006,21.3993451,3.494495988,422.1544993,0.9992222959236926,0.6869063554481731
14577,WV077,"Preston County, West Virginia","Morgantown, WV",416900,-79.68789673,-20.14068985,4.844835011,24.76273629,0.119581374,2.53227338,22.79370762,45.35644978,30.67103233,20.41175177,2.9742465869999997,486.21733499999993,0.9988686240162944,0.6868943350684047
14132,CA674,"Ventura Area, California","Davis, CA",503394,-119.05535890000002,-42.26868439,7.438003385,17.13351411,0.136758808,0.9882914709999999,24.092415600000002,35.0781631,40.65535278,26.30841663,3.771224257,370.165948,0.9993275487101618,0.686090938711967
14578,WV079,"Putnam County, West Virginia","Morgantown, WV",224200,-81.88046265,-21.71491051,5.129560407,21.90364056,0.141006859,1.8706543359999999,33.08142687,51.58894953,15.29440307,30.692853399999997,3.63657567,259.73272430000003,0.9919944435546755,0.6860161091271623
18250,PA005,"Armstrong County, Pennsylvania","Morgantown, WV",424845,-79.45159912,-19.34271431,4.912770727,10.22086189,0.12233701,1.896069216,21.56432642,50.00223931,28.42917446,23.06542042,3.0104025560000003,381.58308860000005,0.9989745859582152,0.6860058309090207
15178,MO099,"Jefferson County, Missouri","Morgantown, WV",425280,-90.51525879,-26.12330055,6.186150059,22.23952523,0.12045969,1.685448615,38.96078123,45.47297344,15.56624486,19.80138072,3.186099468,243.2473082,0.9909102564742571,0.6844147165081749
14106,CA638,"San Diego County Area, California","Davis, CA",2345190,-116.8384094,-41.77316666,6.545176552,12.67918964,0.10997042300000001,0.797913877,18.07347458,23.27438192,58.64265889,27.83941743,2.659098249,711.8036344999999,0.9959193893218077,0.6841425580034589
20752,TN629,"Morgan County Area, Tennessee","Morgantown, WV",332300,-84.62774658,-24.21663666,5.014214658,5.9543893610000005,0.13322715,0.79084866,24.48402328,44.02121577,31.494761199999996,25.06065937,2.823057291,551.6743217999999,0.9982430477939536,0.6819326700758844
14630,PA009,"Bedford County, Pennsylvania","Morgantown, WV",651213,-78.47160339,-19.20615387,5.142985552,11.78840849,0.105744332,0.719960782,22.23145295,44.29215561,33.50351461,20.00815654,3.2175921460000003,385.4571755,0.9991586464486014,0.6817722013733006
10289,AZ699,"Hualapai-Havasupai Area, Arizona, Parts of Coconino, Mohave, and Yavapai Counties","Phoenix, AZ",1180540,-113.1548615,-38.45542145,7.74238955,16.3225267,0.11089391,0.9909130209999999,25.06310845,32.12221089,42.81468069,26.14222331,1.8312628569999998,1560.216444,0.9921016874831232,0.6808851051189033
14161,CA719,"Tahoe National Forest Area, California","Davis, CA",1271520,-120.5297012,-40.502517700000006,5.876608627,15.62822026,0.102944255,2.519750474,18.46899112,28.90098087,52.25093116,34.78442272,2.817019694,1618.019685,0.9921440355906553,0.6807846120522973
11209,ID608,"St. Joe Area, Idaho, Parts of Benewah and Shoshone Counties","Bozeman, MT",721800,-116.26087949999999,-34.37625885,6.04699269,9.901258825,0.12986235,3.4812761130000003,12.20145295,51.07653456,36.80963825,41.02842435,3.498925955,1069.421497,0.9950044210136646,0.6798922180676484
12754,TN181,"Wayne County, Tennessee","Morgantown, WV",470700,-87.79864502,-26.28459167,4.980920997,13.113134900000002,0.121674515,0.511963927,26.58630781,46.54057893,26.66795449,24.15910881,3.5558970619999997,224.41253680000003,0.9918832008557424,0.6787979044832606
26035,TX625,"Guadalupe Mountains National Park, Texas","Phoenix, AZ",88276,-104.8682709,-36.45626068,7.909083821,16.49274983,0.100570534,1.6360177269999998,22.548451,31.50905864,45.94790772,30.22057088,2.379944905,1624.1243029999998,0.9920567750395071,0.6757663279086964
14660,PA107,"Schuylkill County, Pennsylvania","Morgantown, WV",501939,-76.22973633,-17.63134766,5.117106103999999,15.62718716,0.094918186,0.784383708,19.73039436,38.67430767,41.18442314,19.6323888,3.069045671,432.6062263,0.9988476238181021,0.6747470636168023
20508,ID670,"Idaho Panhandle National Forest, Idaho-Washington-Montana","Bozeman, MT",2633320,-116.11964420000001,-34.07647324,6.088215084,10.50710267,0.09858590199999999,3.491143433,8.507265233,43.95077247,47.538560600000004,39.79669106,3.2005008339999996,1271.3104640000001,0.993761846595176,0.6746027277346552
14895,AL071,"Jackson County, Alabama","Morgantown, WV",721100,-85.97119141,-25.55936623,5.552353047,15.18368562,0.09232724,0.43547253700000005,30.75485442,33.28867929,35.73839398,15.55380635,2.7330211319999997,299.9033031,0.9978000981714263,0.6726893723114621
14983,WV047,"McDowell County, West Virginia","Morgantown, WV",342400,-81.65380859,-22.05484009,4.797837314,36.94555193,0.09983192800000001,2.7779674510000003,16.36445938,45.64552877,37.99001186,46.82437720000001,3.8766513810000003,362.4630508,0.9964195980551364,0.6714308011054545
64576,PA007,"Beaver County, Pennsylvania","Morgantown, WV",284070,-80.33189392,-19.83362579,5.128422058,12.90011002,0.128495374,1.505924634,23.74250364,48.78839914,27.46196591,20.32519511,3.2290139289999997,353.9163582,0.9988004087146085,0.6712294064451395
10469,WA608,"Cashmere Mountain Area, Washington, Parts of Chelan and Okanogan Counties","Portland, OR",1532289,-120.5539246,-36.33293152,6.35987267,14.23382245,0.096351638,1.164105848,9.97093177,27.72328246,62.05239187,51.277542100000005,3.410368925,1289.140206,0.9937787302267,0.6688685212058112
14798,NC075,"Graham County, North Carolina","Morgantown, WV",193018,-83.81023407,-24.18268394,4.72841984,5.9441779729999995,0.07256162,3.101210408,16.07082987,32.1754287,51.75374141,44.30023855,3.426616058,851.8217149000001,0.9960012367776497,0.6686882023682265
11269,MT631,"Helena National Forest Area, Montana","Bozeman, MT",966100,-111.98899840000001,-32.42639923,7.010860445,12.36547306,0.09333985800000001,1.71436978,17.22529815,37.94232673,44.81729131,38.95830221,3.07337283,1842.7638100000001,0.9917443564875654,0.6665145207504952
14598,WV612,"Pleasants and Tyler Counties, West Virginia","Morgantown, WV",253100,-80.99489594,-20.67513084,5.082731267,29.6942017,0.144543326,1.83761262,32.60377496,53.17665877,14.18502433,32.79986717,3.5254592369999997,265.5354483,0.9904800075210517,0.6664001140866045
14834,TN059,"Greene County, Tennessee","Morgantown, WV",399500,-82.8748703,-23.32740593,5.63533877,15.31289167,0.128245641,0.834387799,31.26273392,43.58999053,25.10742426,19.68443444,3.703252499,446.04345750000005,0.9989956370205093,0.6658339470252275
27536,ID683,"Boise County Area, Idaho, Western Part","Portland, OR",455552,-116.0161743,-36.08209991,6.219315267000001,11.15079405,0.097956776,3.1672147689999997,11.32860021,24.22062605,64.45077062,43.834678100000005,2.7537404839999997,1403.20251,0.9929047316103545,0.6651972589088296
10290,AZ701,"Grand Canyon Area, Arizona, Parts of Coconino and Mohave Counties","Phoenix, AZ",1450620,-112.82547,-37.92487335,7.501348291,15.31726994,0.098706375,1.083773907,24.53843539,30.30122353,45.16034142,23.11362007,1.326870704,1500.208405,0.992110141417709,0.6642226938073976
14812,TN007,"Bledsoe County, Tennessee","Morgantown, WV",260700,-85.17054749,-24.77530098,4.890893684,17.4705033,0.133576048,0.5109280629999999,26.8959755,37.09951168,35.94292604,18.6118625,2.92574229,481.2015494,0.9987504108269929,0.6633152657640846
14211,GU640,Territory of Guam,"Davis, CA",135680,144.7875061,79.0954895,6.6656186360000005,32.05831804,0.10419493199999999,3.3090802760000004,30.58058428,20.76063324,18.67088376,19.58550664,1.876897665,130.67840800000002,0.9646246553821514,0.6624589577091222
10506,WA774,"North Cascades National Park Complex, Washington","Portland, OR",684302,-121.09210209999999,-36.14974213,5.419893728,10.4658702,0.131415495,8.421210795,3.771753481,28.05954515,68.16870137,58.15444964,2.277345149,1341.641461,0.9935452507180165,0.6613712317503326
14748,KY619,"Grant and Pendleton Counties, Kentucky","Morgantown, WV",346951,-84.49046326,-22.86128235,6.851057026,20.57313394,0.119570796,0.726738551,39.39973801,54.29199015,6.308272025,18.3945198,2.551314687,267.9090779,0.9897016547299339,0.6606717687031557
14422,UT609,"Morgan Area, Utah - Morgan County and Part of Weber County","Bozeman, MT",605823,-111.5983047,-35.22058105,6.613325737,16.10282646,0.107602158,1.6759495340000001,24.91039335,34.004619500000004,41.08498727,38.50070221,3.59461444,1731.390192,0.9920675663628514,0.660658750598762
14803,NC115,"Madison County, North Carolina","Morgantown, WV",288838,-82.68574524,-23.36509895,5.112047302,8.503808304,0.080435169,1.278913012,16.07426614,28.31767441,55.60738878,41.02661302,3.436825101,886.4768728,0.9955363689730024,0.6595514224993814
14733,KY231,"Wayne County, Kentucky","Morgantown, WV",309728,-84.81835938,-23.98464394,5.540233744,13.47209397,0.139556046,0.672172688,36.15843761,40.38397983,23.45762995,24.83865135,3.618030942,351.4229168,0.9990077081907653,0.6595278800315556
17918,OH073,"Hocking County, Ohio","Morgantown, WV",271194,-82.45396423,-21.39887619,5.167890368999999,14.64092973,0.13551259300000001,0.9457263159999999,24.23598015,47.1667469,28.59727284,25.72185783,3.7557916660000004,314.47853660000004,0.9984435599196405,0.6584940839867335
20355,KY648,"Mammoth Cave National Park, Kentucky","Morgantown, WV",52453,-86.14582825,-24.46312332,5.462919917000001,18.04819239,0.13516914,0.6499938479999999,27.37591316,41.18880545,31.43528139,17.43667464,3.44583554,202.4264657,0.988780067325369,0.6577974012244838
14861,TN127,"Moore County, Tennessee","Morgantown, WV",83700,-86.39169312,-25.560865399999997,5.306972228999999,19.08361034,0.130905507,0.6948166579999999,33.18550228,48.16735103,18.64714666,22.09443193,3.519084513,238.50112080000002,0.9917156818659737,0.6561940426278955
14878,TN159,"Smith County, Tennessee","Morgantown, WV",208400,-85.957901,-24.84804153,5.823610501,23.05034728,0.140692439,0.900051079,39.95810354,44.76781703,15.27407932,22.20402807,3.1624002489999996,221.1747925,0.9870502057382439,0.6544875609878142
12308,VT001,"Addison County, Vermont","Amherst, MA",516700,-73.09008789,-14.49458313,6.279185226,15.51947784,0.120067495,4.419760084,31.80595098,30.59527133,37.54156814,14.72614435,2.79828852,277.35491160000004,0.9964481095153535,0.6542943790223931
14534,VA163,"Rockbridge County, Virginia","Morgantown, WV",368618,-79.41385651,-20.79479027,5.27562511,10.10075664,0.11443468,0.41938976,35.11557699,34.12407597,30.76161133,27.18945258,3.753279632,488.0,0.998918680219372,0.6540500217915416
19302,PW935,"Islands of Palau, Republic of Palau","Davis, CA",108305,132.9205933,68.84651947,5.715298724,36.52161442,0.142563871,13.14422534,29.76927223,39.04646284,21.3161284,33.10557789,1.919560659,45.27699164,0.6480002591392914,0.6522382725862933
14764,KY637,"Bracken and Robertson Counties, Kentucky","Morgantown, WV",198055,-84.06988525,-22.74051094,6.801666598,21.66828152,0.112495107,0.644682847,40.537561100000005,52.19527471,7.267164349,20.60731125,3.102944495,240.3774369,0.9864399136849147,0.6515495784786688
10495,WA680,"Wenatchee National Forest, Naches Area, Washington, Parts of Kittitas and Yakima Counties","Portland, OR",520655,-121.21013640000001,-37.21838379,6.270164356,14.28343088,0.100847675,1.871433214,11.84525915,31.49196239,56.66277835,43.17596421,3.405698428,1455.95536,0.9929888239689558,0.6474941069514637
14592,WV604,"Brooke, Hancock, and Ohio Counties, West Virginia","Morgantown, WV",185600,-80.62895966,-20.25120735,5.3323158269999995,12.12896936,0.14754550800000002,0.815466061,24.60832454,53.35314636,22.03407655,24.06032375,3.213601759,310.8985083,0.9971752832329054,0.6471338544205228
59976,AR005,"Baxter County, Arkansas","Morgantown, WV",375500,-92.37266541,-28.08804703,5.708228667999999,16.04979163,0.100983196,1.6454422819999999,37.55329001,37.44743502,24.99927519,17.66195729,3.383146604,298.7954848,0.9974740027265062,0.6459947624204113
14587,WV601,"Wood and Wirt Counties, West Virginia","Morgantown, WV",391700,-81.45938873,-21.13312149,5.312506293,29.59495965,0.13783626,2.27818506,36.09721378,47.82334981,15.95932556,24.54730559,3.2370220769999998,243.0316786,0.9892647603929492,0.6454843264718101
16027,PA099,"Perry County, Pennsylvania","Morgantown, WV",357588,-77.29344177,-18.36860657,5.078664309,10.50657299,0.097249213,1.1086805640000001,19.16565366,43.75642591,37.02605602,19.97473248,3.060195044,353.5060591,0.9987088763924405,0.6430333403524455
14624,OH167,"Washington County, Ohio","Morgantown, WV",409408,-81.44525146,-20.91057587,5.4679417589999995,17.55287721,0.135149191,0.726908619,32.74533436,49.14471651,18.10491571,24.36455463,3.7434789619999997,285.8283139,0.9959404411474752,0.6425681620873833
11519,OH001,"Adams County, Ohio","Morgantown, WV",375078,-83.48653412,-22.33555603,5.986924623999999,23.58493355,0.142744483,0.82117389,35.25549115,46.40161535,18.34204736,19.78158955,3.241301127,353.9649691,0.9979369842669892,0.6424634849234295
15127,AR101,"Newton County, Arkansas","Morgantown, WV",526713,-93.23229218,-28.60693169,5.079956021,20.89522126,0.11403968099999999,0.610461836,33.3604893,33.12350893,33.51600182,25.30149919,3.8638592089999997,413.0279499,0.99945615496423,0.6419490998858222
15140,AR129,"Searcy County, Arkansas","Morgantown, WV",427533,-92.68148041,-28.34660339,5.239408438,17.83328678,0.10785072300000001,0.965596797,34.63871986,37.95818322,27.40309707,20.74360203,3.71002764,360.6681805,0.9991417230622783,0.6401926460338034
14680,PA109,"Snyder County, Pennsylvania","Morgantown, WV",212173,-77.07777405,-18.08156776,5.052746599999999,12.85900315,0.104094605,0.635131035,21.35905772,45.71438027,32.84047093,17.16404711,2.9667564289999997,367.1407925,0.9987885500866004,0.6367972232170047
14202,HI995,"Island of Kahoolawe, Hawaii","Davis, CA",28471,-156.6161194,-68.01535034,6.730926928,11.37792516,0.077837336,0.6526905,35.25503393,52.65866834,12.08629773,18.24840188,2.9513345089999996,169.5404447,0.9707347292647471,0.6367224649631611
14179,CA618,"Yuba County, California","Davis, CA",412116,-121.32272340000002,-41.045578000000006,6.243467712999999,15.76261262,0.136445279,0.9015130029999999,25.65876037,30.96816279,35.3689656,13.80546715,3.062778207,360.02004819999996,0.9986680807610364,0.6361136693751923
10487,WA657,"Skagit County Area, Washington","Portland, OR",632000,-122.0242004,-36.50581741,5.753602052000001,22.12983564,0.12031891300000001,2.413217901,11.85150998,38.165159700000004,49.93031346,28.03730016,3.545483963,365.3267637,0.9974851642580791,0.6359774170609948
14541,VA187,"Warren County, Virginia","Morgantown, WV",139000,-78.1993866,-19.62358284,5.304608936,7.851153987999999,0.11993896400000001,0.893350269,26.21223003,42.1526257,31.63471708,24.14516598,3.689694517,373.022426,0.9993823698142045,0.6344750508422464
14618,OH121,"Noble County, Ohio","Morgantown, WV",259104,-81.46589661,-20.82542229,5.7353959439999995,24.55185564,0.13223447,0.863470228,34.42779516,50.33664132,15.23003749,29.81594136,4.0191136080000005,313.5694783,0.9961385022918637,0.6337079947960205
11270,MT632,"Lewis and Clark National Forest Area, Montana","Bozeman, MT",1484600,-111.18359380000001,-31.42770195,7.158214875,15.67516761,0.10426694800000001,4.353544305,21.82491822,31.83196474,46.34311709,34.48172396,2.7448274510000004,1991.989577,0.991221940832371,0.6336533006056799
14990,OK021,"Cherokee County, Oklahoma","Morgantown, WV",497235,-95.04037476,-29.57935333,5.341447508,14.89567749,0.10612986599999999,1.029067739,30.39865134,41.35313259,28.24800348,15.63196255,3.336499711,299.1903289,0.9978591191580587,0.6335565748254839
14693,KY045,"Casey County, Kentucky","Morgantown, WV",285107,-84.9357605,-23.80197906,5.692299472999999,10.26405003,0.142058394,0.574111643,31.32130995,46.81079753,21.86789278,20.72154234,3.2891407939999997,314.3064708,0.9978743458105594,0.6334369139405015
15375,PA105,"Potter County, Pennsylvania","Morgantown, WV",692064,-77.90232849,-18.06160545,5.019570427,9.766262942000001,0.096032804,1.9609570769999998,18.69070001,42.5282208,38.32796457,24.92600951,3.497306862,603.5598647,0.9977816642861821,0.6325052538343722
14875,TN153,"Sequatchie County, Tennessee","Morgantown, WV",170100,-85.41725159,-25.03923607,4.87756131,13.05488489,0.130400743,0.670952922,25.42771723,36.23665559,38.33562718,21.72432064,3.406974286,509.92630729999996,0.9985829059593787,0.6321150749171991
14681,PA119,"Union County, Pennsylvania","Morgantown, WV",202983,-77.08235168,-17.99648476,5.162482773,19.62230656,0.110470074,0.7124946190000001,22.94315375,42.4136811,34.50103307,16.51533535,3.358749819,385.0662066,0.9989457197588987,0.631007602504829
12863,PR787,"San German Area, Southwestern Puerto Rico","Raleigh, NC",223211,-67.00578308,-24.43468475,7.036605655,33.05596183,0.13861431400000002,2.9498412289999996,41.70718962,31.309882899999998,26.2330826,24.81302119,2.8568485239999997,170.1849207,0.968862294192704,0.6294423485322419
10417,ID611,"Lewis and Nez Perce Counties, Idaho","Portland, OR",854800,-116.53764340000001,-35.07863617,6.836638495,19.21049094,0.15137708800000002,1.755046022,25.87425599,53.99302370000001,20.13272018,26.97989085,3.6070158230000002,884.3259972000001,0.9957766422196447,0.6292715006554369
10429,ID680,"Blaine County Area, Idaho","Portland, OR",609094,-114.0886841,-35.21539307,6.968316377000001,18.56611543,0.10293078800000001,1.401314196,23.16072102,32.86907208,43.97020695,29.36097124,2.893115075,1848.1738679999999,0.9914508901757497,0.6278296728478823
10478,WA634,"Snoqualmie Pass Area, Washington (Parts of King and Pierce Counties)","Portland, OR",1187130,-121.6505203,-37.163414,5.705080046,21.79585554,0.115735517,3.7386647969999998,9.119646644,33.56504738,56.85439874,37.17532597,3.525436267,774.1681926,0.9964807760137085,0.6276699049637936
14838,TN081,"Hickman County, Tennessee","Morgantown, WV",391800,-87.47257996,-25.79620171,5.0054606239999995,11.95975607,0.124045053,0.5286457370000001,30.11328306,49.44778692,20.43892987,24.95603668,3.681307432,229.64045389999998,0.991152572993607,0.6275851667932948
15189,MO153,"Ozark County, Missouri","Morgantown, WV",483315,-92.44226074,-27.80757332,5.981660175,22.36018673,0.099871185,1.125557234,43.870576299999996,38.43018473,17.69923894,17.93795192,3.0618178339999997,294.6521752,0.9952576192416901,0.6267288177476368
14628,PA003,"Allegheny County, Pennsylvania","Morgantown, WV",476167,-80.02501678,-19.74732971,5.452831142000001,16.60529507,0.135155686,1.300567875,27.80351016,51.33664776,20.85593367,18.90046799,3.4171134,344.9284784,0.9980285162185015,0.6265613177624753
20753,TN701,"Fentress and Pickett Counties Area, Tennessee","Morgantown, WV",424352,-84.97367096,-24.26434708,5.083383443,13.42150954,0.138760288,0.6578282,27.30058499,38.44146163,34.25849284,18.50059517,3.192361928,452.12370939999994,0.9989320717361582,0.6257929868693436
15094,AR009,"Boone County, Arkansas","Morgantown, WV",385069,-93.07817078,-28.36990356,5.403499086,21.58496192,0.09388874,1.735139205,37.31790078,41.61884174,21.06325767,16.71514175,3.2276311019999997,344.9963512,0.9979431350839111,0.6254645201321934
14658,PA097,"Northumberland County, Pennsylvania","Morgantown, WV",305472,-76.6645813,-17.8882637,5.144898434,13.60574548,0.10427247,0.691753414,20.90825819,45.80605947,33.37611916,16.46537701,3.03493037,351.1238193,0.998560408749918,0.6252600816026836
14866,TN139,"Polk County, Tennessee","Morgantown, WV",282900,-84.53417969,-24.65235138,5.00200097,11.34029228,0.134097344,1.1096378820000001,22.65744225,33.11463458,44.22792312,30.82477616,3.706166107,681.9585459,0.9972409257483308,0.624726881086776
10308,NM636,"Mescalero-Apache Area, New Mexico","Phoenix, AZ",460662,-105.62364199999999,-36.16132355,7.927467675,18.85428752,0.09284170900000001,1.012767428,24.37648696,36.34317328,36.32438963,30.62613106,2.125217582,2249.827808,0.9905977211924196,0.622300021177847
14738,KY605,"Boyd and Greenup Counties, Kentucky","Morgantown, WV",330566,-82.86968994,-22.16848373,5.002933173,17.50925843,0.14168244300000002,0.70526824,28.45051824,47.73929846,23.81018343,28.54317812,3.8980110389999996,239.3206789,0.9926011929959435,0.621406568469473
18362,KY645,"Menifee and Rowan Counties, Kentucky","Morgantown, WV",315053,-83.48812866,-22.69041824,4.920118753,11.27283298,0.13634148599999998,0.78343665,24.04904617,47.23546998,28.71548431,32.01899731,3.935466636,306.8703515,0.9979798971220968,0.6211477801282954
14613,OH105,"Meigs County, Ohio","Morgantown, WV",276794,-82.0329895,-21.43418503,5.465672199,23.82953531,0.133486518,1.107297647,33.15770175,44.9734071,21.8685623,23.24264521,3.792763967,256.02138360000004,0.993966221547482,0.619549371549556
10284,AZ687,"Tonto National Forest, Arizona, Parts of Gila, Maricopa, Pinal and Yavapai Counties","Phoenix, AZ",2873295,-111.2959824,-38.67446136,6.955602197999999,20.41499189,0.065723637,0.917677464,26.27648878,27.12750744,46.59600436,25.17430436,3.2038037569999998,1221.561724,0.9933627120171937,0.6186484012717345
14688,KY011,"Bath County, Kentucky","Morgantown, WV",181754,-83.72154236,-22.73486137,6.345748845,18.71922131,0.13964704,0.634735324,36.96706672,49.31408032,13.7188533,18.53929721,3.152065253,257.700486,0.9922241957381043,0.618600992521354
14607,OH059,"Guernsey County, Ohio","Morgantown, WV",338170,-81.47729492,-20.69338417,5.56334058,18.53684973,0.133480988,0.827660933,27.76260041,50.40796642,21.82482247,20.88919956,3.7364134210000004,315.161668,0.9975360321655428,0.6183412116397424
14796,NC039,"Cherokee County, North Carolina","Morgantown, WV",298707,-84.00593567,-24.35155296,4.792855891,8.388143873999999,0.071044405,3.257582155,18.44610368,28.92308441,52.63083049,34.36253176,3.4365848430000003,701.1670321,0.9966898114605082,0.6175663691002801
14125,CA667,"San Luis Obispo County, California, Carrizo Plain Area","Davis, CA",563840,-119.91418459999998,-42.25747299,7.978670087,13.69688567,0.149304745,0.503534956,21.92794901,30.8043337,47.31967222,29.30752377,3.1144451280000003,702.3233654000001,0.9969215207297624,0.6171314609643292
14199,CA601,"Humboldt County, South Part, California","Davis, CA",683887,-123.97349550000001,-41.77128601,5.823677528999999,20.20215866,0.12306224199999999,2.536885285,24.37863019,35.97031454,39.55913902,38.7541446,4.520452692,437.1628993,0.999726426586381,0.6166877471405986
14210,MP645,"Islands of Aguijan, Rota, Saipan and Tinian, Commonwealth of the Northern Mariana Islands","Davis, CA",77787,145.4758606,79.97041321,7.049723641,27.91628707,0.095715601,3.1803057839999997,33.84629209,26.44091054,30.06257652,13.37882342,1.6454272559999998,181.20055190000002,0.9828570426759661,0.6143240896890104
14809,NC199,"Yancey County, North Carolina","Morgantown, WV",200704,-82.31948853,-23.21732712,5.108262395,10.84729085,0.10070918599999999,2.135000314,17.8152227,26.69778999,55.48698763,41.02696326,3.78032241,1000.4780220000001,0.9948900268737061,0.6134832048263231
12438,NY111,"Ulster County, New York","Amherst, MA",743300,-74.34584045,-16.164943700000002,5.433996982999999,10.65760921,0.109480131,4.020094655,14.24785235,44.98703131,40.76511631,18.89833402,2.70115329,396.7490708,0.9982950990053525,0.6132150314971904
14213,FM931,"Island of Kosrae, Federated States of Micronesia","Davis, CA",26270,162.9668579,84.14713287,5.942659482000001,49.13239528,0.130240629,3.559520533,27.24284949,39.00207038,21.0926325,34.90549239,3.0066134589999995,111.61372209999999,0.8899466752700989,0.6125666162811712
15177,MO093,"Iron County, Missouri","Morgantown, WV",353420,-90.84494781,-26.63235664,5.223725195,15.4016451,0.09752144800000001,1.115742098,35.73193406,39.65497335,24.61309284,18.23135105,3.4792319889999996,328.34499750000003,0.9984014336290251,0.6118343776425309
14414,CO692,"Dinosaur National Monument, Colorado and Utah","Bozeman, MT",155900,-108.91967009999999,-34.0541954,8.008710305,11.44396184,0.090174115,0.766428601,18.98306636,29.66775894,50.83232147,37.16513355,2.614631601,2000.1158440000002,0.9911621927433165,0.6116569111166902
14171,CA777,"San Bernardino National Forest Area, California","Davis, CA",812833,-116.9965057,-41.40976715,6.702368936,6.628152507,0.08936302,0.648689986,10.92868722,18.6557003,70.39989192,44.84724097,2.456277401,1665.522528,0.9918253216736834,0.6100258762115142
14642,PA051,"Fayette County, Pennsylvania","Morgantown, WV",511021,-79.65211487,-19.786415100000003,5.225423267,14.14999959,0.117675205,1.83680299,24.49034906,47.28141975,27.81898291,18.44176499,3.6247773060000004,445.62822310000007,0.998871527937747,0.6086238451264141
10502,WA749,"Okanogan National Forest Area, Washington","Portland, OR",1707654,-119.92822269999999,-35.4146843,6.272371757999999,9.094340861000001,0.11018842699999999,1.184845772,6.57187136,27.54215668,65.88321848,42.0736625,2.6990875410000004,1449.177357,0.9926376415164804,0.6073908805130902
14770,GA619,"Dade and Walker Counties, Georgia","Morgantown, WV",398100,-85.32815552,-25.23434639,5.191498944,16.08715963,0.14012223699999998,0.62226095,31.01541261,38.65581001,30.30103717,19.60817369,3.542758577,362.8970833,0.9992808895257722,0.6068097157476072
14262,NV764,"Humboldt National Forest Area, Nevada, North Part, Parts of Elko and White Pine Counties","Davis, CA",1168342,-115.5767517,-37.48479462,6.9967084029999995,17.04665268,0.09721049300000001,2.6128512880000003,20.60302305,32.69045841,46.48073941,35.68417142,2.464778269,2403.1568399999996,0.9904864731921037,0.6064921869124409
14673,PA013,"Blair County, Pennsylvania","Morgantown, WV",337568,-78.36806488,-18.93619728,5.096326774,12.52908941,0.10708688599999999,0.935263154,23.78865655,42.08921225,33.69583548,19.19338164,3.5993496589999996,418.89324510000006,0.9991458478077522,0.605683894724915
14684,KY001,"Adair County, Kentucky","Morgantown, WV",263974,-85.28516388,-24.05921936,5.539323512,12.45673704,0.12305116,0.49742810299999995,32.04407086,48.75640842,19.19952069,19.40690937,3.547048188,254.98057659999998,0.994037369852397,0.6049856282498205
14703,KY069,"Fleming County, Kentucky","Morgantown, WV",224621,-83.71852112,-22.6408329,6.261669832000001,20.15485778,0.136935551,0.6095022170000001,39.28140685,45.11909024,15.59950316,16.98550761,3.029895986,258.8178495,0.9928199988835912,0.6048749537080181
10210,AK641,"Haines Area, Alaska","Portland, OR",341056,-135.83407590000002,-38.09366608,5.529608959,25.92986896,0.11923184,15.87411672,3.606530031,45.56421101,50.82925895,43.36658648,2.27860317,499.04977790000004,0.9976116352337145,0.6033718832602775
14565,WV039,"Kanawha County, West Virginia","Morgantown, WV",581400,-81.55466461,-21.61343765,5.039452668,51.67612765,0.10877770699999999,2.256245386,25.48853667,39.21494139,35.29652193,38.43443603,3.194485677,299.73791580000005,0.9899437092527192,0.602481000088474
30277,SD607,"Custer and Pennington Counties Area, Black Hills Parts, South Dakota","Denver, CO",1167040,-103.63612370000001,-29.86961174,7.214310459,16.61639699,0.087249835,1.200403108,20.298582999999997,43.89061049,32.94815756,26.74539652,3.447602354,1539.3440480000002,0.9922682286288543,0.60123620267396
11247,WA651,"Pend Oreille County Area, Washington","Bozeman, MT",733194,-117.3309631,-34.493408200000005,6.536049749,12.21973375,0.11493660900000001,2.266187596,10.38336161,37.14048714,52.43545407,30.35519639,3.3287655910000002,1056.9746189999998,0.9943401105268241,0.6010197553855057
15133,AR113,"Polk County, Arkansas","Morgantown, WV",551693,-94.1999054,-29.86973763,5.235556086,7.786712955,0.11498052,0.724776359,25.28235876,39.00455498,35.289927,18.93308343,3.2998660639999997,332.98033439999995,0.998735867854302,0.6004830911461027
14276,NV778,"Humboldt National Forest, Nevada, South Part, Parts of Lincoln, Nye and White Pine Counties","Davis, CA",1062220,-114.960968,-38.04717255,7.764294945,16.22686147,0.091392474,1.5494977380000001,20.46411937,34.57479293,44.95885555,31.42793945,1.9190389540000001,2374.543169,0.9904250818827158,0.6003061252468401
14783,MD023,"Garrett County, Maryland","Morgantown, WV",425200,-79.20767975,-19.86309624,4.9064850810000005,10.68443458,0.10635984,0.899098167,21.29084228,37.4682549,41.29901921,18.73323648,3.05057007,553.5201063,0.9977402668334693,0.6002553662263767
11217,ID671,"Clearwater National Forest, Idaho","Bozeman, MT",1652374,-115.04289250000001,-34.09249878,5.742978592999999,7.569560632000001,0.108640889,2.827431261,9.352177013,30.11194676,60.53587623,47.18200844,3.403511444,1421.574564,0.9930150737207745,0.6001477348337324
15193,MO161,"Phelps County, Missouri","Morgantown, WV",431347,-91.77708435,-26.96298599,5.274119981,15.29976824,0.10162301800000001,0.7407828740000001,30.57255047,40.14527237,29.28206447,13.462694899999999,3.045344467,283.8150475,0.9971228684663266,0.5999810286554361
13045,MT643,"Powder River Area, Montana","Denver, CO",2212500,-105.7304993,-29.99402618,7.964048869,14.89663788,0.08827736800000001,0.79371558,26.67152727,40.94023844,31.58798729,20.15318782,3.219401992,1026.8734539999998,0.9942764430374814,0.5999393100052307
14692,KY043,"Carter County, Kentucky","Morgantown, WV",263802,-83.05664063,-22.30180168,5.0039029710000005,14.08081436,0.141027763,0.745641338,31.16119823,47.45066649,21.38813522,28.81089812,3.933401356,286.9088638,0.9967345579416065,0.5994641853863626
12805,AL127,"Walker County, Alabama","Morgantown, WV",517230,-87.29496765,-26.72030449,5.068933512,5.917565507999999,0.103764564,0.375243451,24.73008687,34.90805555,40.03995642,21.40140678,3.127021178,187.4145359,0.9853934130977791,0.5993626524910034
14756,KY628,"Laurel and Rockcastle Counties, Kentucky","Morgantown, WV",487514,-84.18267822,-23.46174049,5.125700309,26.68511307,0.136953804,1.241269584,27.85865042,47.76191451,24.37943505,24.98149292,3.782540863,347.4254714,0.9984643965873014,0.596478159764248
14586,WV600,"Jackson and Mason Counties, West Virginia","Morgantown, WV",586500,-81.86221313,-21.51406479,5.248225315,28.82746877,0.14407903,2.006061103,33.79741378,49.60933365,16.416691,26.13510548,3.6089556060000003,244.6892774,0.9896301375068772,0.5957801715751654
13389,TX465,"Val Verde County, Texas","Temple, TX",2069031,-101.22769170000001,-35.72899628,8.070843391,21.57310393,0.06440632,3.877274846,28.19080095,40.3278577,31.49246553,12.20014931,1.484181722,619.1470312999999,0.9970074555719102,0.595191720394773
10282,AZ675,"San Carlos Indian Reservation, Arizona, Parts of Gila and Graham Counties","Phoenix, AZ",1827421,-110.124054,-38.30987549,7.382502741000001,22.56156805,0.058046868,1.147764264,33.07464836,28.36695087,37.82248223,21.12678118,2.650554503,1418.401388,0.9923896615706237,0.5949648664900616
15125,AR097,"Montgomery County, Arkansas","Morgantown, WV",512359,-93.66452026,-29.52731323,5.190953386,6.842070125,0.11395991300000001,0.5271548189999999,29.49158532,40.88029627,29.62811801,19.42884087,3.3094911639999998,305.7571828,0.9982285576834397,0.5932768415328455
14826,TN035,"Cumberland County, Tennessee","Morgantown, WV",438000,-84.97727966,-24.46735382,4.904530164,22.08751402,0.139127574,0.598308153,24.89316705,36.36623734,38.69757551,17.01913832,2.787623004,533.0818865,0.9981174992661876,0.5920024120286601
14167,CA760,"Sequoia National Forest Parts of Fresno, Kern and Tulare Counties, California","Davis, CA",1404804,-118.6712341,-41.3227005,6.190110692,8.101781908,0.09338453199999999,1.186948665,10.86246845,21.71378488,67.42374778,41.46117994,2.3098608240000003,1961.850086,0.9911207189646142,0.5898830829771746
20908,MT663,"Glacier National Park Area - Parts of Glacier and Flathead Counties, Montana","Bozeman, MT",1017900,-113.85820009999999,-32.50408173,6.197162467999999,12.51384348,0.079591379,2.9060595869999997,15.56083398,27.867011100000003,56.57215493,39.318416600000006,3.451891302,1675.0958460000002,0.9920421271874842,0.5898494924138774
10468,WA607,"Chelan County Area, Washington (Parts of Chelan and Kittitas Counties)","Portland, OR",294290,-120.3412628,-36.32048035,7.2970388139999995,14.28582888,0.140357529,0.814892662,15.49756621,36.5892845,47.92165005,32.16010645,3.777715824,691.1035827000001,0.9972407140755217,0.5875529675740112
14639,PA043,"Dauphin County, Pennsylvania","Morgantown, WV",357242,-76.78237915,-18.20767403,5.25519451,11.79793291,0.103542194,0.6250202229999999,19.67026682,42.78626112,37.35003451,15.39860753,2.9549417630000003,375.5615896,0.9985236051900682,0.5859351226707695
11210,ID609,"Nez Perce National Forest, Idaho","Bozeman, MT",2425330,-115.3289413,-34.50582123,6.111783738,9.864042532000001,0.09796615800000001,2.659783506,14.717260099999999,23.42626334,61.85647678,41.39786348,3.357682568,1528.4640880000002,0.9923847862691971,0.58471083952573
14732,KY229,"Washington County, Kentucky","Morgantown, WV",192730,-85.20094299,-23.68478203,6.856323818,20.93968179,0.133400543,0.90480298,39.84870372,51.080245,9.071051523,15.24397663,2.602195404,252.41670919999999,0.9890536214258341,0.5843334400151334
12406,NY039,"Greene County, New York","Amherst, MA",421500,-74.15552521,-15.83858109,5.292996973,8.748665934,0.101409365,2.806752124,16.35294148,44.24600598,39.40105227,18.56702742,2.9821721589999997,494.4721788,0.9980961944810266,0.5840874228431483
14163,CA731,"Stanislaus National Forest, California, Parts","Davis, CA",1126485,-120.0141449,-40.97698975,5.769864002,12.367181500000001,0.11859522300000001,1.6894967730000001,17.51216637,27.14263594,55.34411933,36.06777228,3.253780421,1631.666487,0.9920438672787953,0.5817369365750725
12862,PR700,"El Yunque National Forest, Puerto Rico","Raleigh, NC",27847,-65.802948,-23.73176384,4.999452583,19.37858739,0.155762336,3.444368093,42.52394206,34.22768246,21.81818456,34.76064697,3.85965879,563.2569204,0.9983868293163725,0.5795627157934967
12985,SD081,"Lawrence County, South Dakota","Denver, CO",512224,-103.7542953,-29.65581703,7.154679252,18.52918358,0.10233209800000001,1.4210913090000001,23.77852623,44.71465052,29.281969099999998,24.83869778,3.59693874,1516.282616,0.9923250249123144,0.5790624826052816
10481,WA639,"Klickitat County Area, Washington","Portland, OR",1013863,-120.7392883,-37.12992096,6.705807272,15.11222615,0.151737343,1.273846405,20.12492443,45.62652003,34.24855572,19.81886952,3.545043478,605.1489684,0.9976819805633963,0.5788392268867486
14407,CO682,"Douglas-Plateau Area, Colorado, Parts of Garfield and Mesa Counties","Bozeman, MT",1021900,-108.375351,-34.32911301,7.761358887,16.41871845,0.105055014,0.938462494,22.43878553,34.55060258,42.49420378,36.41778013,3.1454885810000004,2159.7410059999997,0.9909572828605601,0.5781623929331937
12735,PR682,"Arecibo Area, Puerto Rico Northern Part","Raleigh, NC",407443,-66.60044861,-24.07493973,6.037447189,29.93593725,0.151002984,2.814258007,46.89173397,27.97363914,24.43989179,29.884080400000002,3.397715783,194.2379553,0.9767733608725606,0.5771133448127035
14425,UT622,"Heber Valley Area, Utah - Parts of Wasatch and Utah Counties","Bozeman, MT",305994,-111.39768980000001,-35.44605255,6.6664696370000005,18.03170451,0.104968323,1.747660595,23.12764702,27.84806141,49.02043076,31.70900881,3.017472454,2007.114545,0.9910737696858317,0.5769817765922401
10397,OR639,"Linn County Area, Oregon","Portland, OR",964560,-122.72708130000001,-38.9967041,5.631930264,22.20835325,0.15194570300000002,3.134367395,33.49765601,43.65742681,23.02542108,22.49233991,3.706273005,403.8202081,0.9991562018043122,0.5765026307955962
14854,TN111,"Macon County, Tennessee","Morgantown, WV",196600,-86.00852966,-24.68801498,5.187836906999999,12.38704577,0.127913889,1.2518491459999999,30.28022072,51.47433083,18.24544852,20.31988496,3.551604818,220.2219858,0.9888855376565235,0.5745128154693147
10273,AZ663,"Gila-Duncan Area, Parts of Graham and Greenlee Counties, Arizona","Phoenix, AZ",770000,-109.6397324,-38.31080627,7.696249706000001,18.8115552,0.08746329300000001,0.9232585809999999,32.96171843,29.59807907,37.44020259,21.92851865,3.185499918,1330.3416789999999,0.9927493793464823,0.5734413203301263
10370,OR021,"Gilliam County, Oregon","Portland, OR",782630,-120.2066803,-37.34727097,7.403216894,13.9054161,0.16038246,1.190041157,18.37413796,54.30167085,27.31838165,20.99426852,2.608452535,585.0519561000001,0.9977263205319516,0.5724976036096132
20063,SD612,"Badlands National Park, South Dakota","Denver, CO",242824,-102.39353940000001,-29.20640755,8.144630888,23.50361152,0.08030764,0.45632783200000004,35.08726826,43.495609,21.90626874,17.65436889,2.97514189,954.1056392999999,0.9947316917553164,0.5723649070624899
10338,TX622,"Brewster County, Texas (Main Part)","Phoenix, AZ",3149584,-103.0608215,-36.552661900000004,7.953006356,18.23234285,0.079595083,2.26058871,23.90597578,36.87703799,39.19191301,15.28258778,2.17466685,1163.494613,0.9932857014530376,0.5722455681804873
14529,VA139,"Page County, Virginia","Morgantown, WV",200400,-78.48820496,-19.93165398,5.05128629,8.804076971,0.119326919,0.6944639220000001,25.33772495,36.62281988,38.03945511,23.26821334,3.7167488539999995,550.156248,0.9981552542332265,0.5709775899992512
14668,PA607,"Cameron and Elk Counties, Pennsylvania","Morgantown, WV",787692,-78.54183959999999,-18.39334106,4.8871580439999995,10.4582543,0.10353509400000001,1.653641967,19.48770333,40.85949281,39.81204725,19.771203399999997,3.3487499880000002,477.8290081,0.9985129829930384,0.5690579114523656
14486,IN025,"Crawford County, Indiana","Morgantown, WV",197523,-86.46360779,-24.07068253,5.028846644,12.24548175,0.147195711,0.722496457,23.28426065,51.39066115,25.32507821,19.39134151,2.9852004639999996,197.7361065,0.9853425661860866,0.5680264825323035
10347,UT686,"Grand Staircase-Escalante National Monument Area, Parts of Kane and Garfield Counties, Utah","Phoenix, AZ",1894373,-111.720665,-36.9861908,7.981598032999999,11.03696231,0.10408329599999999,0.90875924,16.79299425,24.81980284,58.38772798,32.01291607,2.255449395,1805.271662,0.9913464164198723,0.5677358620923313
20524,NV709,"Snake Range Area, Nevada, Part of White Pine County","Phoenix, AZ",98875,-114.24901580000001,-37.69852829,7.954863552000001,13.24617196,0.07741600900000001,1.515038024,16.6727362,32.18256193,51.09880093,32.92007646,2.138308833,2365.6836829999997,0.9904071363709287,0.5662271282980271
17914,KY151,"Madison County, Kentucky","Morgantown, WV",283706,-84.29997253,-23.27932358,6.310357548,19.54296485,0.144919796,0.769771787,37.832541,48.85285116,13.31460815,16.74491818,3.0608825189999997,254.8294131,0.9915948224316169,0.5660588106189783
11268,MT630,"Lewis and Clark County Area, Montana","Bozeman, MT",1223900,-112.21382140000001,-32.558425899999996,7.43725764,15.07958985,0.104251082,1.847804176,23.27581196,36.07268178,40.32615318,20.76327707,3.114270158,1416.1537970000002,0.9923959617127114,0.5659032935691138
10503,WA754,"Mount Rainier National Park, Washington","Portland, OR",235319,-121.6819763,-37.36751938,5.397255684,7.898239151,0.131445112,6.415135035,3.408420062,31.47167078,65.11990916,51.95892809,3.033479418,1571.889903,0.9926033206294158,0.5657209031485799
14794,NC011,"Avery County, North Carolina","Morgantown, WV",158124,-81.90829468,-22.91208649,5.070450625,9.080392976,0.084161024,2.4095236019999997,15.42525368,28.37037939,55.83931335,34.36469071,3.6189886860000002,975.8605267999999,0.9946801236250918,0.5630135989099679
14168,CA763,"Inyo National Forest, Eastern Part, California and Nevada","Davis, CA",674418,-118.38369750000001,-40.60180283,7.506731164,9.526690331000001,0.07995737900000001,0.303806527,14.59501355,24.00636622,61.39444122,41.67749323,2.426673415,2421.460696,0.9903862942948272,0.562933614165835
14725,KY207,"Russell County, Kentucky","Morgantown, WV",180985,-85.05522919,-24.00406265,5.522974121,12.80132738,0.139867256,0.6111785670000001,31.18197485,49.77783342,19.04019165,16.70370673,3.19416278,306.25753419999995,0.9967629840359417,0.56132888262639
14747,KY618,"Garrard and Lincoln Counties, Kentucky","Morgantown, WV",365210,-84.60408783,-23.55489159,6.090495628999999,14.88789579,0.14719169,0.860820423,36.81802782,49.92145783,13.26051443,16.88519366,2.9901780980000003,257.1767157,0.9921592989537298,0.5611553499803505
14504,VA015,"Augusta County, Virginia","Morgantown, WV",632800,-79.14143372,-20.43382645,5.184543519,10.16210837,0.109660917,0.7373521759999999,28.02868654,34.77621156,37.19510223,24.17440484,3.942362358,651.0734162,0.9972479381487563,0.5609049978208551
14735,KY603,"Boone, Campbell, and Kenton Counties, Kentucky","Morgantown, WV",371756,-84.56474304,-22.72743797,6.444110217,20.52904836,0.12342363099999999,0.7282381240000001,38.22590783,49.57844559,12.19564658,15.51009119,3.2334039910000003,223.3042131,0.9862523061952627,0.5608072299073251
10485,WA648,"Colville Indian Reservation (Parts of Ferry and Okanogan Counties), Washington","Bozeman, MT",1361232,-118.9398193,-35.15514374,6.840819259,9.762238874,0.106509285,1.216150326,9.90832533,33.84081368,56.40273219,28.04224857,3.1881979830000002,880.762915,0.99502991466265,0.560472334136553
10277,AZ667,"Santa Cruz and Parts of Cochise and Pima Counties, Arizona","Phoenix, AZ",1098300,-110.8375092,-39.44570923,7.4027724379999995,14.55033471,0.10330656699999999,1.007026307,22.31224212,26.43181866,51.25593938,25.74015767,3.076388511,1465.099607,0.9922376632607318,0.5589595996338447
14410,CO685,"Rio Blanco County Area, Colorado","Bozeman, MT",1676600,-108.25868229999999,-33.90810013,7.7898968260000006,15.78961995,0.10542094800000001,1.010181311,20.17545026,37.56902077,40.23001627,25.52325274,2.2472851769999997,2082.631449,0.9907438950119132,0.5587684941551516
10373,OR053,"Polk County, Oregon","Portland, OR",477056,-123.381279,-39.15865326,5.432492689,21.71409871,0.15263158699999999,3.121730375,34.54362799,44.63843195,20.74243952,23.40248155,3.729792336,316.895027,0.9977343264922711,0.5583935865679942
12383,PA117,"Tioga County, Pennsylvania","Amherst, MA",728108,-77.24243164,-17.66646194,5.351090857,9.204585197,0.083458157,1.985650365,15.67786425,47.49556482,36.74454423,16.62709107,2.835757731,441.07569800000005,0.9981917795904333,0.5565663381464352
10256,AZ637,"Yavapai County, Arizona, Western Part","Phoenix, AZ",3774500,-112.65957639999999,-39.05149078,7.535929921,19.10714043,0.11342608900000001,1.342999265,26.44500258,28.94904798,44.60594972,19.74744366,2.590498501,1489.677849,0.9920522098490242,0.5555098422747019
11283,MT651,"Sanders and Parts of Lincoln and Flathead Counties, Montana","Bozeman, MT",945500,-115.11437990000002,-33.52938461,6.769621515,10.40502519,0.09568638900000001,2.246131807,15.23048384,34.75514622,49.26910428,27.57753661,3.5580643960000002,1184.282545,0.9934988468418487,0.5547188262487122
19625,CA795,"Mojave National Preserve Area, California","Phoenix, AZ",1495500,-115.55630490000001,-40.11566925,8.036139845,15.79949055,0.069569328,0.318565237,20.22691907,30.71780781,49.07553926,20.34738662,2.300619228,1362.9411519999999,0.9924771129150649,0.5539688947021449
14705,KY097,"Harrison County, Kentucky","Morgantown, WV",198253,-84.32987213,-22.912166600000003,6.683340417999999,22.16032215,0.142489052,0.7353853990000001,42.03666078,43.19873318,14.76460613,14.00868748,2.456457117,260.94234730000005,0.9920224364132308,0.5530693977084744
14499,IN013,"Brown County, Indiana","Morgantown, WV",202490,-86.23031616,-23.51541901,4.859807375,9.352041502,0.137261357,0.764828197,18.93852052,64.41310613,16.64776999,25.78943419,3.2146847910000003,238.2490116,0.985852008091682,0.5526754068718894
14715,KY155,"Marion County, Kentucky","Morgantown, WV",221952,-85.27575684,-23.80865479,5.829797623999999,17.24646134,0.146118523,0.5693750710000001,36.71346011,48.47898356,14.8075563,16.86072528,3.1291644119999997,221.20235730000005,0.9878515287183648,0.552201193674301
14808,NC189,"Watauga County, North Carolina","Morgantown, WV",200992,-81.68696594,-22.67218208,5.167234297,9.291223463,0.08257027900000001,2.043969626,15.18306166,26.46403162,58.22652409,35.59589805,3.706703643,937.3641446,0.9948687371324353,0.5510181898258428
11276,MT638,"Missoula County Area, Montana","Bozeman, MT",1293900,-113.9887695,-33.335495,6.491330884,10.96769691,0.083311459,2.282134422,13.31238002,29.94523269,54.78608866,32.03301569,3.4155743530000002,1419.6405539999998,0.9925378590312114,0.5508469070630503
14797,NC043,"Clay County, North Carolina","Morgantown, WV",141126,-83.7442627,-24.24816704,5.032462033,13.29539601,0.093694106,2.2515169580000003,17.53347016,25.65648224,56.80940247,37.68296536,4.024107636,855.1733577,0.9956599355336669,0.5503651523427275
14670,PA611,"Greene and Washington Counties, Pennsylvania","Morgantown, WV",921050,-80.17884827,-20.05884552,5.831294797999999,18.27188849,0.12217360099999999,0.7388342990000001,28.75341894,56.59099389,14.65558722,20.05921037,3.8147502739999997,316.4787022,0.9957330854740917,0.5488187746900324
15188,MO151,"Osage County, Missouri","Morgantown, WV",391002,-91.91775513,-26.67601776,5.853154461,22.59678757,0.11798048900000001,0.656883882,36.24561821,46.08289657,17.67148533,14.90771461,3.4039867619999997,226.17546040000002,0.9889365625567347,0.5481883037835874
15203,MO215,"Texas County, Missouri","Morgantown, WV",755469,-91.94966125,-27.29885674,5.26408692,17.198036899999998,0.100023094,0.764175615,36.59689817,42.09950105,21.3036009,13.27751079,3.158129929,317.59361160000003,0.9972247415603397,0.5452594121569755
14675,PA027,"Centre County, Pennsylvania","Morgantown, WV",711770,-77.76025391,-18.22608185,5.091000694,12.29974948,0.10832513199999999,1.093584065,22.30717779,35.54018695,41.87679902,18.54466864,3.580141905,446.12128150000007,0.9985901316887915,0.545147323266632
14126,CA668,"Kern County, Northeastern Part, and Southeastern Part of Tulare County, California","Davis, CA",913000,-118.52291869999999,-41.35752869,7.190514476000001,12.80797528,0.108007681,0.858635177,15.66185141,19.74242728,64.5968315,32.116170600000004,3.20141106,1051.287714,0.993837109815877,0.544802000755988
14716,KY161,"Mason County, Kentucky","Morgantown, WV",157683,-83.80783844,-22.58389282,6.620935205,22.10511167,0.142100204,0.7278174940000001,42.42419623,47.44829614,10.12750831,16.21572205,2.8740427810000004,258.91179569999997,0.9902717941967691,0.5447066730090235
